PosX,PosY,PosZ,VelX,VelY,VelZ,Steering,Throttle,Brake,LocalVelX,LocalVelY,LocalVelZ,AccLat,AccLong,AccVert,Yaw,Pitch,Roll,DistFromIdeal,Curva,LapTime
-18.544,0.027,-24.135,36.063,0.025,1.348,0.0,1.0,0.0,-0.117,-0.202,36.087,-9.942,3.478,-0.14,88.055,359.643,358.465,4.41,,0.02
-17.823,0.027,-24.125,36.067,0.003,1.156,0.0,1.0,0.0,0.049,-0.223,36.085,9.584,-1.205,-0.119,88.084,359.642,0.544,4.564,,0.04
-17.101,0.026,-24.107,36.076,-0.027,1.091,0.0,1.0,0.0,0.126,-0.244,36.092,3.195,-1.591,0.363,88.059,359.661,1.154,4.827,,0.06
-16.38,0.027,-24.064,36.053,0.047,1.378,0.0,1.0,0.0,-0.172,-0.189,36.079,-14.42,3.39,-0.662,88.092,359.632,358.656,5.198,,0.08
-15.659,0.026,-24.044,36.076,-0.047,1.298,0.0,1.0,0.0,-0.106,-0.261,36.099,4.033,-4.716,0.996,88.109,359.662,359.694,5.621,,0.1
-14.937,0.027,-24.034,36.079,0.022,1.124,0.0,1.0,0.0,0.107,-0.205,36.096,8.815,3.222,-0.123,88.037,359.645,1.5,6.095,,0.12
-14.216,0.027,-23.994,36.068,0.009,1.324,0.0,1.0,0.0,-0.066,-0.219,36.092,-10.046,-0.752,-0.208,88.006,359.64,359.393,6.63,,0.14
-13.494,0.026,-23.963,36.076,-0.029,1.381,0.0,1.0,0.0,-0.134,-0.246,36.101,-2.794,-1.94,0.46,88.028,359.66,358.912,7.194,,0.16
-12.772,0.027,-23.957,36.072,0.048,1.094,0.0,1.0,0.0,0.165,-0.189,36.088,14.438,3.503,-0.653,87.994,359.63,1.377,7.771,,0.18
-12.051,0.026,-23.927,36.089,-0.045,1.175,0.0,1.0,0.0,0.097,-0.26,36.107,-4.041,-4.615,0.955,87.979,359.659,0.249,8.382,,0.2
-11.33,0.027,-23.888,36.08,0.018,1.336,0.0,1.0,0.0,-0.105,-0.209,36.104,-8.155,2.926,-0.146,88.053,359.645,358.52,9.013,,0.22
-10.607,0.027,-23.879,36.083,0.011,1.126,0.0,1.0,0.0,0.079,-0.217,36.1,10.495,-0.467,-0.218,88.083,359.639,0.663,9.645,,0.24
-9.886,0.026,-23.86,36.096,-0.033,1.076,0.0,1.0,0.0,0.141,-0.25,36.111,2.509,-2.258,0.54,88.063,359.661,1.045,10.293,,0.26
-9.164,0.027,-23.817,36.072,0.047,1.365,0.0,1.0,0.0,-0.161,-0.19,36.097,-14.565,3.656,-0.662,88.097,359.63,358.585,10.959,,0.28
-8.443,0.026,-23.799,36.093,-0.044,1.279,0.0,1.0,0.0,-0.087,-0.259,36.115,4.299,-4.533,0.855,88.109,359.658,359.803,11.623,,0.3
-7.72,0.027,-23.788,36.093,0.015,1.13,0.0,1.0,0.0,0.105,-0.21,36.11,7.556,2.739,-0.247,88.033,359.647,1.47,12.291,,0.32
-6.999,0.027,-23.747,36.081,0.015,1.351,0.0,1.0,0.0,-0.091,-0.214,36.106,-11.08,-0.145,-0.186,88.004,359.639,359.277,12.974,,0.34
-6.277,0.026,-23.717,36.093,-0.036,1.396,0.0,1.0,0.0,-0.148,-0.252,36.119,-2.193,-2.557,0.642,88.026,359.661,358.995,13.658,,0.36
-5.555,0.027,-23.711,36.089,0.048,1.102,0.0,1.0,0.0,0.158,-0.189,36.105,14.794,3.818,-0.663,87.992,359.63,1.462,14.34,,0.38
-4.833,0.026,-23.679,36.102,-0.042,1.195,0.0,1.0,0.0,0.075,-0.258,36.121,-4.638,-4.508,0.755,87.984,359.657,0.142,15.032,,0.4
-4.112,0.027,-23.641,36.09,0.012,1.336,0.0,1.0,0.0,-0.108,-0.212,36.114,-7.123,2.5,-0.327,88.059,359.65,358.527,15.728,,0.42
-3.389,0.027,-23.634,36.095,0.018,1.1,0.0,1.0,0.0,0.106,-0.211,36.111,11.816,0.165,-0.173,88.083,359.639,0.796,16.419,,0.44
-2.667,0.026,-23.614,36.106,-0.04,1.066,0.0,1.0,0.0,0.154,-0.254,36.121,1.649,-2.943,0.519,88.058,359.666,0.961,17.115,,0.46
-1.946,0.027,-23.57,36.083,0.049,1.366,0.0,1.0,0.0,-0.156,-0.187,36.108,-15.124,4.041,-0.64,88.088,359.633,358.478,17.819,,0.48
-1.224,0.026,-23.554,36.099,-0.04,1.264,0.0,1.0,0.0,-0.062,-0.255,36.12,5.124,-4.429,0.604,88.093,359.658,359.926,18.518,,0.5
-0.502,0.027,-23.542,36.096,0.008,1.129,0.0,1.0,0.0,0.114,-0.214,36.113,6.787,2.22,-0.35,88.018,359.654,1.487,19.219,,0.52
0.22,0.027,-23.499,36.084,0.023,1.384,0.0,1.0,0.0,-0.121,-0.206,36.11,-12.782,0.571,-0.177,88.0,359.639,359.108,19.927,,0.54
0.941,0.026,-23.471,36.093,-0.046,1.402,0.0,1.0,0.0,-0.157,-0.257,36.119,-0.791,-3.462,0.487,88.031,359.669,359.095,20.633,,0.56
1.664,0.027,-23.465,36.091,0.049,1.096,0.0,1.0,0.0,0.151,-0.185,36.107,15.387,4.319,-0.603,88.012,359.636,1.594,21.336,,0.58
2.385,0.026,-23.431,36.096,-0.036,1.215,0.0,1.0,0.0,0.037,-0.251,36.116,-5.939,-4.283,0.421,88.013,359.659,359.979,22.045,,0.6
3.107,0.027,-23.394,36.087,0.002,1.335,0.0,1.0,0.0,-0.122,-0.216,36.111,-6.045,1.78,-0.257,88.084,359.658,358.514,22.756,,0.62
3.829,0.027,-23.389,36.091,0.03,1.054,0.0,1.0,0.0,0.147,-0.2,36.106,14.073,1.146,-0.247,88.089,359.639,1.017,23.462,,0.64
4.551,0.026,-23.366,36.106,-0.052,1.075,0.0,1.0,0.0,0.156,-0.261,36.121,-1.065,-4.089,0.748,88.042,359.672,0.779,24.171,,0.66
5.273,0.027,-23.323,36.083,0.046,1.38,0.0,1.0,0.0,-0.14,-0.186,36.109,-15.442,4.458,-0.56,88.04,359.639,358.335,24.885,,0.68
5.995,0.026,-23.31,36.094,-0.026,1.237,0.0,1.0,0.0,0.007,-0.244,36.114,7.142,-3.658,0.234,88.025,359.656,0.181,25.595,,0.7
6.717,0.026,-23.296,36.096,-0.007,1.138,0.0,1.0,0.0,0.139,-0.224,36.113,5.009,0.849,-0.062,87.966,359.662,1.45,26.305,,0.72
7.438,0.027,-23.25,36.074,0.04,1.45,0.0,1.0,0.0,-0.178,-0.191,36.103,-15.715,2.04,-0.496,87.986,359.639,358.801,27.021,,0.74
8.16,0.026,-23.226,36.096,-0.059,1.373,0.0,1.0,0.0,-0.125,-0.264,36.121,3.933,-4.928,0.928,88.023,359.677,359.434,27.734,,0.76
8.882,0.027,-23.218,36.096,0.036,1.119,0.0,1.0,0.0,0.13,-0.189,36.112,12.826,4.394,-0.45,88.01,359.649,1.639,28.445,,0.78
9.604,0.026,-23.179,36.088,-0.006,1.289,0.0,1.0,0.0,-0.03,-0.225,36.11,-8.492,-2.145,-0.108,88.004,359.652,359.612,29.161,,0.8
10.325,0.026,-23.146,36.089,-0.013,1.368,0.09,1.0,0.0,-0.126,-0.23,36.114,-3.929,-0.485,0.175,88.038,359.662,358.685,29.877,,0.82
11.048,0.027,-23.142,36.087,0.052,1.061,0.09,1.0,0.0,0.194,-0.185,36.101,15.42,2.909,-0.599,88.002,359.631,1.308,30.589,,0.84
11.769,0.026,-23.113,36.106,-0.053,1.151,0.09,1.0,0.0,0.123,-0.264,36.123,-4.486,-5.211,1.065,87.977,359.667,0.41,31.304,,0.86
12.491,0.027,-23.073,36.095,0.027,1.362,0.09,1.0,0.0,-0.116,-0.199,36.12,-10.684,3.732,-0.163,88.033,359.646,358.414,32.022,,0.88
13.213,0.027,-23.062,36.099,0.002,1.171,0.0,1.0,0.0,0.051,-0.223,36.117,9.515,-1.364,-0.116,88.058,359.645,0.531,32.736,,0.9
13.935,0.026,-23.045,36.108,-0.026,1.094,0.0,1.0,0.0,0.132,-0.242,36.123,3.853,-1.5,0.311,88.046,359.663,1.228,33.451,,0.92
14.657,0.027,-23.001,36.086,0.05,1.361,0.0,1.0,0.0,-0.177,-0.186,36.111,-13.467,3.542,-0.622,88.127,359.632,358.695,34.17,,0.94
15.379,0.026,-22.982,36.108,-0.047,1.254,0.0,1.0,0.0,-0.124,-0.26,36.129,5.408,-4.843,0.903,88.21,359.663,359.691,34.886,,0.96
16.102,0.027,-22.973,36.112,0.022,1.05,0.0,1.0,0.0,0.085,-0.204,36.126,10.303,3.155,-0.119,88.192,359.645,1.54,35.601,,0.98
16.823,0.027,-22.935,36.104,0.008,1.229,0.0,1.0,0.0,-0.072,-0.221,36.124,-8.952,-0.784,-0.12,88.168,359.639,359.43,36.32,,1.0
17.545,0.026,-22.906,36.109,-0.027,1.276,0.0,1.0,0.0,-0.125,-0.246,36.131,-2.329,-1.783,0.337,88.182,359.657,358.89,37.038,,1.02
18.268,0.027,-22.902,36.104,0.047,0.985,0.0,1.0,0.0,0.183,-0.191,36.116,14.635,3.375,-0.725,88.141,359.629,1.363,37.753,,1.04
18.99,0.026,-22.874,36.122,-0.046,1.068,0.0,1.0,0.0,0.116,-0.261,36.137,-4.169,-4.651,1.011,88.12,359.66,0.263,38.471,,1.06
19.712,0.027,-22.837,36.114,0.018,1.24,0.0,1.0,0.0,-0.096,-0.208,36.135,-8.683,2.984,-0.092,88.194,359.645,358.503,39.191,,1.08
20.435,0.027,-22.83,36.116,0.01,1.041,0.0,1.0,0.0,0.075,-0.218,36.13,9.978,-0.532,-0.209,88.227,359.639,0.634,39.907,,1.1
21.157,0.026,-22.813,36.127,-0.031,0.99,0.0,1.0,0.0,0.135,-0.249,36.14,2.496,-2.107,0.471,88.209,359.66,1.065,40.625,,1.12
21.879,0.027,-22.771,36.104,0.047,1.279,0.0,1.0,0.0,-0.167,-0.19,36.126,-14.537,3.575,-0.683,88.243,359.63,358.603,41.345,,1.14
22.602,0.026,-22.755,36.125,-0.044,1.195,0.0,1.0,0.0,-0.093,-0.26,36.144,4.248,-4.558,0.88,88.256,359.658,359.781,42.064,,1.16
23.325,0.027,-22.745,36.125,0.016,1.038,0.0,1.0,0.0,0.105,-0.21,36.139,7.902,2.814,-0.228,88.179,359.646,1.477,42.781,,1.18
24.047,0.027,-22.707,36.114,0.013,1.254,0.0,1.0,0.0,-0.084,-0.216,36.135,-10.809,-0.274,-0.215,88.149,359.639,359.302,43.502,,1.2
24.769,0.026,-22.678,36.124,-0.034,1.303,0.0,1.0,0.0,-0.144,-0.251,36.147,-2.375,-2.432,0.59,88.17,359.661,358.974,44.221,,1.22
25.492,0.027,-22.674,36.12,0.048,1.01,0.0,1.0,0.0,0.16,-0.19,36.133,14.707,3.755,-0.683,88.136,359.63,1.443,44.939,,1.24
26.214,0.026,-22.644,36.133,-0.043,1.101,0.0,1.0,0.0,0.08,-0.259,36.149,-4.515,-4.543,0.772,88.127,359.657,0.167,45.659,,1.26
26.936,0.027,-22.608,36.122,0.013,1.245,0.0,1.0,0.0,-0.105,-0.211,36.142,-7.286,2.617,-0.315,88.202,359.649,358.527,46.379,,1.28
27.659,0.027,-22.602,36.125,0.017,1.015,0.0,1.0,0.0,0.101,-0.213,36.138,11.511,0.028,-0.19,88.227,359.639,0.765,47.098,,1.3
28.382,0.026,-22.584,36.138,-0.038,0.977,0.0,1.0,0.0,0.152,-0.253,36.15,1.866,-2.769,0.587,88.204,359.663,0.98,47.817,,1.32
29.104,0.027,-22.542,36.115,0.049,1.275,0.0,1.0,0.0,-0.158,-0.188,36.137,-15.036,3.943,-0.671,88.237,359.631,358.502,48.538,,1.34
29.827,0.026,-22.528,36.132,-0.041,1.177,0.0,1.0,0.0,-0.069,-0.257,36.15,4.904,-4.469,0.663,88.243,359.657,359.896,49.258,,1.36
30.55,0.027,-22.518,36.128,0.01,1.038,0.08,1.0,0.0,0.113,-0.213,36.142,7.019,2.344,-0.386,88.167,359.652,1.486,49.977,,1.38
31.272,0.027,-22.477,36.117,0.021,1.286,0.245,1.0,0.0,-0.113,-0.208,36.139,-12.401,0.391,-0.176,88.145,359.639,359.147,50.698,,1.4
31.994,0.026,-22.45,36.124,-0.044,1.313,0.245,1.0,0.0,-0.157,-0.256,36.146,-1.329,-3.261,0.378,88.173,359.669,359.059,51.418,,1.42
32.717,0.027,-22.446,36.12,0.05,1.009,0.177,1.0,0.0,0.154,-0.185,36.134,15.355,4.247,-0.636,88.149,359.635,1.572,52.137,,1.44
33.439,0.026,-22.415,36.127,-0.039,1.08,0.177,1.0,0.0,0.063,-0.253,36.142,-3.553,-4.424,0.432,88.188,359.661,0.117,52.858,,1.46
34.161,0.027,-22.38,36.118,0.014,1.173,0.0,1.0,0.0,-0.116,-0.208,36.136,-4.76,2.533,-0.299,88.331,359.653,358.566,53.579,,1.48
34.884,0.027,-22.379,36.122,0.023,0.817,0.0,1.0,0.0,0.142,-0.208,36.13,17.842,0.144,-0.286,88.473,359.638,1.076,54.298,,1.5
35.607,0.026,-22.361,36.134,-0.062,0.783,0.0,1.0,0.0,0.144,-0.269,36.141,1.651,-4.293,0.54,88.524,359.675,0.841,55.018,,1.52
36.329,0.027,-22.327,36.118,0.047,0.953,0.0,1.0,0.0,-0.09,-0.182,36.13,-8.677,5.244,-0.573,88.639,359.641,358.585,55.739,,1.54
37.051,0.026,-22.321,36.119,-0.015,0.752,-0.158,1.0,0.0,0.029,-0.234,36.126,10.064,-3.168,-0.184,88.761,359.654,0.203,56.458,,1.56
37.774,0.027,-22.316,36.12,0.0,0.607,-0.158,1.0,0.0,0.14,-0.221,36.124,7.226,0.608,-0.112,88.806,359.655,1.347,57.177,,1.58
38.496,0.027,-22.283,36.108,0.043,0.868,-0.216,1.0,0.0,-0.132,-0.194,36.117,-13.08,1.888,-0.32,88.838,359.629,358.92,57.898,,1.6
39.218,0.026,-22.269,36.127,-0.045,0.836,-0.216,1.0,0.0,-0.097,-0.262,36.136,1.687,-4.367,0.915,88.833,359.658,359.382,58.618,,1.62
39.941,0.027,-22.269,36.123,0.037,0.689,0.0,1.0,0.0,0.127,-0.197,36.129,7.401,3.936,-0.321,88.698,359.634,1.297,59.337,,1.64
40.663,0.027,-22.241,36.122,-0.007,0.914,0.0,1.0,0.0,0.003,-0.234,36.133,-11.203,-2.269,0.207,88.548,359.639,359.614,60.058,,1.66
41.386,0.027,-22.214,36.125,-0.017,1.094,0.0,1.0,0.0,-0.103,-0.242,36.14,-9.005,-0.727,0.378,88.436,359.647,358.714,60.779,,1.68
42.109,0.027,-22.211,36.125,0.04,0.956,0.0,1.0,0.0,0.128,-0.202,36.137,6.954,2.759,-0.18,88.275,359.62,0.921,61.499,,1.7
42.831,0.027,-22.187,36.137,-0.033,1.067,0.0,1.0,0.0,0.089,-0.258,36.151,-5.541,-3.63,0.738,88.165,359.645,0.447,62.22,,1.72
43.553,0.027,-22.15,36.125,0.023,1.292,0.0,1.0,0.0,-0.153,-0.213,36.147,-11.324,2.566,-0.199,88.202,359.631,358.689,62.942,,1.74
44.277,0.027,-22.137,36.142,-0.007,1.148,0.0,1.0,0.0,-0.036,-0.238,36.159,7.183,-1.578,0.586,88.235,359.634,0.334,63.663,,1.76
45.0,0.027,-22.121,36.153,-0.016,1.049,0.0,1.0,0.0,0.074,-0.244,36.168,4.964,-0.545,0.423,88.214,359.642,1.116,64.384,,1.78
45.722,0.027,-22.082,36.138,0.031,1.264,0.0,1.0,0.0,-0.147,-0.211,36.159,-10.785,2.177,-0.414,88.237,359.621,358.984,65.107,,1.8
46.445,0.027,-22.062,36.161,-0.038,1.195,0.0,1.0,0.0,-0.079,-0.263,36.18,3.506,-3.425,1.03,88.236,359.645,359.612,65.829,,1.82
47.169,0.027,-22.054,36.163,0.02,0.994,0.0,1.0,0.0,0.148,-0.216,36.176,10.093,2.678,-0.188,88.183,359.63,1.322,66.55,,1.84
47.892,0.027,-22.02,36.161,-0.002,1.158,0.0,1.0,0.0,-0.007,-0.233,36.178,-8.175,-1.196,0.114,88.18,359.634,359.58,67.272,,1.86
48.615,0.027,-21.99,36.164,-0.019,1.241,0.0,1.0,0.0,-0.117,-0.243,36.184,-4.141,-0.901,0.289,88.226,359.648,358.937,67.995,,1.88
49.339,0.027,-21.984,36.159,0.036,0.997,0.0,1.0,0.0,0.134,-0.202,36.172,12.229,2.493,-0.588,88.202,359.627,1.13,68.716,,1.9
50.062,0.027,-21.958,36.176,-0.038,1.065,0.0,1.0,0.0,0.072,-0.259,36.191,-3.404,-3.669,0.905,88.197,359.651,0.322,69.439,,1.92
50.785,0.027,-21.922,36.165,0.019,1.242,0.0,1.0,0.0,-0.141,-0.214,36.185,-8.914,2.642,-0.266,88.264,359.636,358.662,70.162,,1.94
51.509,0.027,-21.913,36.166,0.003,1.059,-0.012,1.0,0.0,0.025,-0.228,36.181,9.155,-0.89,-0.228,88.28,359.635,0.515,70.883,,1.96
52.232,0.027,-21.896,36.173,-0.024,0.985,-0.012,1.0,0.0,0.119,-0.246,36.185,3.671,-1.408,0.23,88.245,359.652,1.027,71.605,,1.98
52.955,0.027,-21.857,36.152,0.038,1.236,-0.012,1.0,0.0,-0.143,-0.2,36.173,-12.609,2.85,-0.628,88.276,359.627,358.79,72.328,,2.0
53.678,0.027,-21.84,36.173,-0.038,1.163,-0.012,1.0,0.0,-0.08,-0.26,36.191,3.659,-3.824,0.903,88.286,359.65,359.735,73.05,,2.02
54.402,0.027,-21.831,36.171,0.017,0.997,-0.138,1.0,0.0,0.126,-0.215,36.184,8.37,2.552,-0.361,88.214,359.638,1.36,73.772,,2.04
55.125,0.027,-21.795,36.159,0.007,1.19,-0.119,1.0,0.0,-0.044,-0.224,36.178,-9.663,-0.592,-0.289,88.187,359.635,359.415,74.495,,2.06
55.848,0.027,-21.767,36.164,-0.028,1.258,-0.119,1.0,0.0,-0.121,-0.248,36.184,-3.328,-1.778,0.33,88.207,359.654,358.991,75.218,,2.08
56.572,0.027,-21.762,36.158,0.041,1.003,0.0,1.0,0.0,0.151,-0.197,36.171,12.796,3.14,-0.663,88.165,359.628,1.267,75.939,,2.1
57.295,0.027,-21.733,36.171,-0.038,1.109,0.0,1.0,0.0,0.074,-0.259,36.187,-5.273,-3.938,0.814,88.127,359.651,0.167,76.662,,2.12
58.018,0.027,-21.695,36.155,0.01,1.345,0.09,1.0,0.0,-0.139,-0.219,36.179,-11.896,2.114,-0.424,88.1,359.642,358.451,77.385,,2.14
58.742,0.027,-21.687,36.157,0.01,1.166,0.09,1.0,0.0,0.076,-0.221,36.175,8.96,-0.119,-0.197,88.029,359.636,0.673,78.107,,2.16
59.465,0.026,-21.667,36.161,-0.039,1.135,0.09,1.0,0.0,0.144,-0.253,36.177,1.476,-2.477,0.118,87.966,359.665,1.051,78.829,,2.18
60.187,0.027,-21.622,36.13,0.044,1.444,0.09,1.0,0.0,-0.181,-0.188,36.158,-15.597,3.765,-0.963,88.005,359.639,358.532,79.552,,2.2
60.91,0.026,-21.602,36.148,-0.048,1.354,0.119,1.0,0.0,-0.118,-0.257,36.173,4.53,-4.586,0.726,88.042,359.668,359.82,80.274,,2.22
61.633,0.027,-21.591,36.147,0.014,1.156,0.119,1.0,0.0,0.083,-0.207,36.165,10.012,2.801,-0.381,88.028,359.654,1.623,80.996,,2.24
62.356,0.027,-21.549,36.135,0.017,1.335,0.0,1.0,0.0,-0.12,-0.211,36.159,-8.977,0.044,-0.281,88.078,359.641,359.32,81.719,,2.26
63.078,0.026,-21.52,36.143,-0.032,1.336,0.0,1.0,0.0,-0.164,-0.248,36.166,0.028,-2.471,0.361,88.15,359.663,358.965,82.442,,2.28
63.802,0.027,-21.517,36.136,0.051,0.963,-0.09,1.0,0.0,0.191,-0.187,36.148,18.721,3.631,-0.935,88.163,359.633,1.614,83.163,,2.3
64.524,0.026,-21.487,36.151,-0.052,1.024,-0.09,1.0,0.0,0.112,-0.263,36.164,-3.061,-5.126,0.831,88.198,359.666,0.192,83.885,,2.32
65.247,0.027,-21.451,36.14,0.015,1.173,-0.09,1.0,0.0,-0.095,-0.205,36.158,-7.558,3.136,-0.303,88.3,359.656,358.368,84.608,,2.34
65.97,0.027,-21.448,36.144,0.017,0.918,-0.216,1.0,0.0,0.138,-0.209,36.155,12.762,-0.077,-0.174,88.321,359.644,0.838,85.329,,2.36
66.693,0.026,-21.433,36.149,-0.049,0.881,-0.216,1.0,0.0,0.2,-0.256,36.159,1.815,-3.329,0.193,88.28,359.678,1.088,86.051,,2.38
67.415,0.027,-21.39,36.12,0.057,1.254,-0.283,1.0,0.0,-0.16,-0.176,36.141,-18.842,4.694,-0.854,88.275,359.64,358.244,86.774,,2.4
68.138,0.026,-21.375,36.13,-0.057,1.218,-0.235,1.0,0.0,-0.095,-0.262,36.149,1.841,-5.684,0.388,88.221,359.677,359.754,87.496,,2.42
68.861,0.026,-21.366,36.127,0.025,1.116,-0.235,1.0,0.0,0.099,-0.193,36.144,5.203,3.947,-0.287,88.065,359.66,1.643,88.217,,2.44
69.582,0.027,-21.32,36.105,0.022,1.499,0.0,1.0,0.0,-0.185,-0.205,36.135,-19.17,-0.484,-0.435,87.922,359.646,358.913,88.94,,2.46
70.304,0.026,-21.289,36.109,-0.071,1.584,0.0,1.0,0.0,-0.211,-0.27,36.142,-4.174,-4.726,0.358,87.83,359.69,358.865,89.662,,2.48
71.027,0.027,-21.281,36.102,0.067,1.349,0.0,1.0,0.0,0.121,-0.16,36.127,11.913,6.574,-0.778,87.66,359.645,1.639,90.384,,2.5
71.748,0.026,-21.24,36.083,-0.038,1.579,0.0,1.0,0.0,0.001,-0.241,36.116,-11.494,-5.272,-0.498,87.493,359.677,359.898,91.105,,2.52
72.469,0.026,-21.195,36.07,0.001,1.79,0.0,1.0,0.0,-0.134,-0.209,36.114,-10.607,1.605,-0.127,87.382,359.674,358.27,91.828,,2.54
73.192,0.027,-21.181,36.082,0.045,1.596,0.0,1.0,0.0,0.158,-0.184,36.116,9.749,2.032,0.106,87.213,359.641,0.944,92.549,,2.56
73.914,0.026,-21.149,36.09,-0.042,1.652,0.0,1.0,0.0,0.195,-0.253,36.126,-2.879,-4.311,0.533,87.063,359.67,0.901,93.271,,2.58
74.634,0.027,-21.092,36.054,0.057,2.026,0.0,1.0,0.0,-0.169,-0.178,36.11,-18.885,4.367,-0.813,87.061,359.636,358.216,93.994,,2.6
75.357,0.028,-21.06,36.074,0.085,1.921,0.0,1.0,0.0,-0.093,-0.221,36.125,5.293,1.47,0.763,87.104,359.516,359.384,94.716,,2.62
76.08,0.029,-21.038,36.081,0.127,1.837,0.0,1.0,0.0,0.043,-0.232,36.127,4.244,1.997,0.153,87.007,359.432,1.536,95.439,,2.64
76.802,0.031,-20.989,36.088,0.109,2.061,0.0,1.0,0.0,-0.174,-0.303,36.145,-11.149,-0.882,0.914,87.005,359.345,0.254,96.162,,2.66
77.52,0.032,-20.937,35.982,0.011,2.121,0.0,1.0,0.0,-0.229,-0.35,36.042,-3.205,-4.926,-5.178,87.001,359.435,358.848,96.883,,2.68
78.241,0.032,-20.911,36.016,-0.047,1.851,0.0,1.0,0.0,0.114,-0.349,36.061,13.551,-2.988,0.91,86.873,359.521,0.359,8.951,"Curva 1: Strettissima, frenare.",2.7
78.959,0.03,-20.879,35.978,-0.152,1.814,0.0,1.0,0.0,0.211,-0.362,36.022,1.669,-5.259,-2.004,86.769,359.672,0.888,9.044,"Curva 1: Strettissima, frenare.",2.72
79.679,0.028,-20.826,36.021,-0.116,2.038,0.0,1.0,0.0,-0.052,-0.298,36.078,-11.096,1.592,2.77,86.852,359.713,358.989,9.213,"Curva 1: Strettissima, frenare.",2.74
80.399,0.025,-20.79,36.004,-0.137,2.001,0.0,1.0,0.0,-0.043,-0.298,36.059,1.816,-1.012,-0.946,86.891,359.743,359.644,9.419,"Curva 1: Strettissima, frenare.",2.76
81.121,0.025,-20.762,36.031,-0.023,1.865,0.0,0.843,0.0,0.108,-0.223,36.078,6.982,5.529,0.968,86.857,359.687,1.2,9.666,"Curva 1: Strettissima, frenare.",2.78
81.841,0.024,-20.712,36.036,0.023,2.031,0.0,0.843,0.0,-0.04,-0.214,36.092,-8.317,2.226,0.739,86.839,359.625,359.588,9.979,"Curva 1: Strettissima, frenare.",2.8
82.562,0.025,-20.666,36.043,0.049,2.113,0.0,0.843,0.0,-0.125,-0.211,36.104,-4.079,1.233,0.581,86.848,359.592,359.044,10.33,"Curva 1: Strettissima, frenare.",2.82
83.284,0.027,-20.642,36.035,0.103,1.864,0.0,0.761,0.0,0.155,-0.171,36.083,12.442,2.469,-1.042,86.787,359.57,1.094,10.699,"Curva 1: Strettissima, frenare.",2.84
84.003,0.028,-20.598,36.022,0.021,1.935,0.0,0.655,0.0,0.09,-0.216,36.074,-3.574,-4.068,-0.477,86.781,359.624,0.22,11.119,"Curva 1: Strettissima, frenare.",2.86
84.722,0.029,-20.546,35.964,0.035,2.112,0.0,0.655,0.0,-0.139,-0.18,36.025,-8.996,0.531,-2.44,86.867,359.662,358.739,11.575,"Curva 1: Strettissima, frenare.",2.88
85.44,0.029,-20.518,35.908,-0.001,1.936,0.0,0.535,0.0,0.017,-0.188,35.959,8.594,-1.905,-3.288,86.883,359.703,0.549,12.037,"Curva 1: Strettissima, frenare.",2.9
86.157,0.029,-20.484,35.822,-0.052,1.866,0.0,0.535,0.0,0.097,-0.209,35.87,3.231,-2.569,-4.474,86.858,359.751,0.944,12.528,"Curva 1: Strettissima, frenare.",2.92
86.87,0.029,-20.428,35.696,0.004,2.083,0.0,0.239,0.0,-0.144,-0.159,35.757,-11.22,2.625,-5.677,86.897,359.743,358.839,13.052,"Curva 1: Strettissima, frenare.",2.94
87.582,0.028,-20.394,35.573,-0.052,1.995,0.0,0.239,0.0,-0.06,-0.197,35.628,4.064,-2.782,-6.43,86.887,359.768,359.785,13.578,"Curva 1: Strettissima, frenare.",2.96
88.29,0.028,-20.368,35.417,0.01,1.833,0.0,0.239,0.0,0.129,-0.137,35.464,7.72,2.945,-8.225,86.823,359.767,1.288,14.113,"Curva 1: Strettissima, frenare.",2.98
88.994,0.028,-20.315,35.21,0.022,2.012,0.0,0.239,0.0,-0.072,-0.114,35.267,-9.514,0.57,-9.807,86.849,359.78,359.407,14.675,"Curva 1: Strettissima, frenare.",3.0
89.693,0.029,-20.272,34.982,0.003,2.053,0.0,0.239,0.0,-0.14,-0.106,35.042,-2.635,-0.985,-11.295,86.874,359.825,359.085,15.24,"Curva 1: Strettissima, frenare.",3.02
90.389,0.03,-20.251,34.761,0.067,1.788,0.0,0.12,0.0,0.146,-0.038,34.807,12.66,2.965,-11.764,86.814,359.833,1.236,15.801,"Curva 1: Strettissima, frenare.",3.04
91.079,0.031,-20.207,34.506,-0.001,1.846,0.0,0.12,0.0,0.068,-0.076,34.556,-3.586,-3.328,-12.552,86.825,359.875,0.174,16.379,"Curva 1: Strettissima, frenare.",3.06
91.763,0.032,-20.158,34.25,0.036,1.971,0.235,0.0,0.0,-0.099,-0.04,34.307,-7.006,1.673,-12.439,86.873,359.878,358.72,16.965,"Curva 1: Strettissima, frenare.",3.08
92.444,0.032,-20.134,34.015,0.027,1.781,0.235,0.0,0.0,0.105,-0.052,34.061,8.812,-0.5,-12.272,86.825,359.87,0.596,17.541,"Curva 1: Strettissima, frenare.",3.1
93.119,0.032,-20.101,33.735,-0.014,1.743,1.0,0.0,0.0,0.132,-0.082,33.78,1.106,-2.05,-14.063,86.816,359.888,0.839,18.125,"Curva 1: Strettissima, frenare.",3.12
93.788,0.032,-20.05,33.483,0.041,1.907,1.0,0.0,0.0,-0.112,-0.039,33.537,-8.885,2.618,-12.185,86.933,359.868,358.949,18.719,"Curva 1: Strettissima, frenare.",3.14
94.452,0.032,-20.021,33.208,-0.012,1.74,1.0,0.0,0.0,-0.026,-0.077,33.253,7.591,-2.596,-14.142,87.045,359.887,0.006,19.302,"Curva 1: Strettissima, frenare.",3.16
95.111,0.033,-19.998,32.926,0.014,1.501,1.0,0.0,0.0,0.095,-0.045,32.96,11.289,1.04,-14.652,87.223,359.901,1.308,19.884,"Curva 1: Strettissima, frenare.",3.18
95.763,0.033,-19.956,32.652,0.032,1.421,1.0,0.0,0.0,-0.066,-0.021,32.683,3.413,0.93,-13.86,87.623,359.908,359.828,20.473,"Curva 1: Strettissima, frenare.",3.2
96.409,0.034,-19.93,32.329,0.03,1.09,1.0,0.0,0.0,-0.074,-0.006,32.347,16.068,-0.03,-16.686,88.2,359.937,359.838,21.053,"Curva 1: Strettissima, frenare.",3.22
97.051,0.035,-19.922,32.068,0.039,0.588,1.0,0.0,0.0,0.075,-0.001,32.074,24.813,-0.068,-13.527,88.815,359.931,1.32,21.625,"Curva 1: Strettissima, frenare.",3.24
97.686,0.035,-19.901,31.776,0.021,0.402,1.0,0.0,0.0,-0.104,-0.019,31.778,9.171,-0.949,-14.711,89.463,359.928,0.169,22.201,"Curva 1: Strettissima, frenare.",3.26
98.316,0.036,-19.89,31.467,0.038,0.103,1.0,0.0,0.0,-0.192,-0.001,31.466,14.969,0.952,-15.41,90.161,359.931,359.689,22.77,"Curva 1: Strettissima, frenare.",3.28
98.939,0.037,-19.901,31.198,0.024,-0.406,1.0,0.0,0.0,-0.052,-0.018,31.201,25.636,-1.154,-13.056,90.841,359.92,1.139,23.328,"Curva 1: Strettissima, frenare.",3.3
99.558,0.036,-19.907,30.916,-0.012,-0.729,1.0,0.0,0.0,-0.08,-0.054,30.924,16.481,-2.007,-13.695,91.498,359.92,0.684,23.887,"Curva 1: Strettissima, frenare.",3.32
100.171,0.037,-19.915,30.623,0.05,-1.006,1.0,0.0,0.0,-0.169,0.0,30.639,14.399,3.229,-14.113,92.198,359.908,359.663,24.443,"Curva 1: Strettissima, frenare.",3.34
100.777,0.038,-19.945,30.333,0.016,-1.46,1.0,0.0,0.0,-0.056,-0.028,30.369,23.382,-1.958,-13.308,92.862,359.916,0.661,24.987,"Curva 1: Strettissima, frenare.",3.36
101.378,0.038,-19.979,30.022,-0.012,-1.873,1.0,0.0,0.0,0.003,-0.045,30.081,21.528,-1.789,-14.253,93.561,359.937,1.094,25.526,"Curva 1: Strettissima, frenare.",3.38
101.974,0.038,-20.007,29.738,0.043,-2.104,1.0,0.0,0.0,-0.123,0.006,29.812,12.561,2.805,-13.316,94.282,359.93,359.826,26.066,"Curva 1: Strettissima, frenare.",3.4
102.563,0.039,-20.052,29.433,0.012,-2.453,1.0,0.0,0.0,-0.097,-0.016,29.535,18.735,-1.566,-13.654,94.952,359.945,0.109,26.597,"Curva 1: Strettissima, frenare.",3.42
103.145,0.039,-20.11,29.127,0.001,-2.875,1.0,0.0,0.0,-0.006,-0.025,29.268,22.476,-1.023,-13.186,95.647,359.949,1.162,27.118,"Curva 1: Strettissima, frenare.",3.44
103.724,0.039,-20.159,28.864,0.005,-3.073,1.0,0.0,0.0,-0.139,-0.025,29.027,11.306,0.181,-11.975,96.351,359.94,0.14,27.642,"Curva 1: Strettissima, frenare.",3.46
104.295,0.039,-20.218,28.545,0.016,-3.355,1.0,0.0,0.0,-0.176,-0.011,28.741,15.926,0.635,-14.065,97.054,359.947,359.851,28.159,"Curva 1: Strettissima, frenare.",3.48
104.86,0.039,-20.294,28.238,0.01,-3.769,1.0,0.0,0.0,-0.073,-0.014,28.488,22.581,-0.705,-12.459,97.748,359.949,0.99,28.665,"Curva 1: Strettissima, frenare.",3.5
105.42,0.039,-20.367,27.942,-0.006,-4.037,1.0,0.0,0.0,-0.11,-0.027,28.232,15.431,-0.919,-12.652,98.444,359.956,0.572,29.171,"Curva 1: Strettissima, frenare.",3.52
105.974,0.04,-20.441,27.639,0.045,-4.279,1.0,0.0,0.0,-0.174,0.02,27.968,14.316,2.582,-13.01,99.157,359.95,359.802,29.672,"Curva 1: Strettissima, frenare.",3.54
106.521,0.041,-20.533,27.325,0.021,-4.645,1.0,0.0,0.0,-0.094,0.001,27.717,20.726,-1.373,-12.355,99.841,359.955,0.598,30.163,"Curva 1: Strettissima, frenare.",3.56
107.062,0.041,-20.628,26.999,-0.001,-4.977,1.0,0.0,0.0,-0.058,-0.017,27.454,19.3,-1.425,-12.986,100.567,359.966,0.907,30.65,"Curva 1: Strettissima, frenare.",3.58
107.598,0.041,-20.72,26.707,0.038,-5.197,1.0,0.0,0.0,-0.145,0.017,27.208,13.614,1.975,-12.158,101.316,359.957,359.976,31.135,"Curva 1: Strettissima, frenare.",3.6
108.127,0.042,-20.825,26.39,0.017,-5.478,1.0,0.0,0.0,-0.14,0.0,26.952,17.042,-1.11,-12.592,102.025,359.964,0.142,31.612,"Curva 1: Strettissima, frenare.",3.62
108.648,0.042,-20.94,26.064,-0.001,-5.81,1.0,0.0,0.0,-0.084,-0.014,26.703,19.771,-1.174,-12.246,102.745,359.97,0.919,32.081,"Curva 1: Strettissima, frenare.",3.64
109.166,0.042,-21.05,25.777,0.0,-6.025,1.0,0.0,0.0,-0.151,-0.015,26.471,13.796,-0.045,-11.426,103.481,359.966,0.31,32.549,"Curva 1: Strettissima, frenare.",3.66
109.678,0.042,-21.166,25.469,0.019,-6.242,1.0,0.0,0.0,-0.202,0.003,26.222,14.302,0.97,-12.265,104.212,359.967,359.918,33.012,"Curva 1: Strettissima, frenare.",3.68
110.181,0.042,-21.296,25.151,0.004,-6.554,1.0,0.0,0.0,-0.145,-0.008,25.991,19.147,-0.93,-11.321,104.924,359.969,0.693,33.465,"Curva 1: Strettissima, frenare.",3.7
110.679,0.042,-21.426,24.835,-0.008,-6.821,1.0,0.0,0.0,-0.14,-0.018,25.755,17.133,-0.829,-11.611,105.669,359.974,0.696,33.915,"Curva 1: Strettissima, frenare.",3.72
111.173,0.043,-21.556,24.534,0.034,-7.023,1.0,0.0,0.0,-0.203,0.02,25.518,13.939,2.133,-11.604,106.429,359.968,359.975,34.363,"Curva 1: Strettissima, frenare.",3.74
111.658,0.043,-21.698,24.205,0.018,-7.285,1.0,0.0,0.0,-0.177,0.009,25.277,17.384,-0.912,-11.856,107.152,359.978,0.315,34.801,"Curva 1: Strettissima, frenare.",3.76
112.136,0.043,-21.846,23.861,0.003,-7.563,1.0,0.0,0.0,-0.136,0.001,25.031,18.463,-1.004,-12.079,107.897,359.99,0.818,35.233,"Curva 1: Strettissima, frenare.",3.78
112.611,0.044,-21.991,23.569,0.016,-7.765,1.0,0.0,0.0,-0.184,0.01,24.815,14.25,0.609,-10.591,108.659,359.985,0.239,35.664,"Curva 1: Strettissima, frenare.",3.8
113.079,0.044,-22.143,23.255,0.021,-7.964,1.0,0.0,0.0,-0.216,0.014,24.58,14.626,0.205,-11.502,109.408,359.984,0.034,36.088,"Curva 1: Strettissima, frenare.",3.82
113.538,0.044,-22.305,22.929,0.004,-8.223,1.0,0.0,0.0,-0.177,-0.001,24.358,17.766,-1.05,-10.875,110.147,359.984,0.659,36.504,"Curva 1: Strettissima, frenare.",3.84
113.993,0.044,-22.467,22.621,-0.007,-8.439,1.0,0.0,0.0,-0.19,-0.012,24.143,15.565,-0.681,-10.525,110.91,359.983,0.548,36.917,"Curva 1: Strettissima, frenare.",3.86
114.443,0.044,-22.63,22.32,0.021,-8.614,1.0,0.0,0.0,-0.241,0.012,23.923,13.687,1.424,-10.747,111.68,359.978,0.027,37.327,"Curva 1: Strettissima, frenare.",3.88
114.884,0.045,-22.803,21.991,0.008,-8.833,1.0,0.0,0.0,-0.223,0.004,23.697,16.398,-0.76,-11.043,112.423,359.986,0.366,37.728,"Curva 1: Strettissima, frenare.",3.9
115.319,0.045,-22.98,21.654,-0.002,-9.058,1.0,0.0,0.0,-0.199,-0.001,23.471,16.97,-0.743,-11.054,113.185,-0.003,0.698,38.124,"Curva 1: Strettissima, frenare.",3.92
115.75,0.045,-23.156,21.352,0.015,-9.231,1.0,0.0,0.0,-0.235,0.015,23.261,14.054,0.835,-10.272,113.961,-0.004,0.224,38.518,"Curva 1: Strettissima, frenare.",3.94
116.174,0.045,-23.337,21.032,0.019,-9.406,1.0,0.0,0.0,-0.252,0.019,23.038,14.63,0.136,-10.853,114.723,-0.001,0.127,38.905,"Curva 1: Strettissima, frenare.",3.96
116.589,0.046,-23.526,20.701,0.006,-9.619,1.0,0.0,0.0,-0.222,0.009,22.826,16.748,-0.807,-10.38,115.482,0.001,0.602,39.285,"Curva 1: Strettissima, frenare.",3.98
117.0,0.046,-23.715,20.391,0.001,-9.799,1.0,0.0,0.0,-0.235,0.002,22.622,14.921,-0.369,-9.897,116.263,-0.002,0.466,39.662,"Curva 1: Strettissima, frenare.",4.0
117.406,0.046,-23.906,20.087,0.02,-9.951,1.0,0.0,0.0,-0.271,0.017,22.415,13.693,0.91,-10.103,117.049,359.992,0.094,40.035,"Curva 1: Strettissima, frenare.",4.02
117.803,0.046,-24.104,19.759,0.008,-10.13,1.0,0.0,0.0,-0.262,0.008,22.203,15.525,-0.694,-10.308,117.819,-0.004,0.373,40.4,"Curva 1: Strettissima, frenare.",4.04
118.195,0.046,-24.306,19.432,-0.002,-10.31,1.0,0.0,0.0,-0.251,0.001,21.996,15.743,-0.676,-10.055,118.604,0.002,0.59,40.76,"Curva 1: Strettissima, frenare.",4.06
118.582,0.046,-24.507,19.13,0.011,-10.456,1.0,0.0,0.0,-0.281,0.012,21.8,13.752,0.617,-9.563,119.399,0.001,0.233,41.118,"Curva 1: Strettissima, frenare.",4.08
118.961,0.047,-24.713,18.811,0.013,-10.6,1.0,0.0,0.0,-0.295,0.016,21.59,14.238,0.044,-10.194,120.184,0.005,0.187,41.469,"Curva 1: Strettissima, frenare.",4.1
119.333,0.047,-24.924,18.482,0.003,-10.769,1.0,0.0,0.0,-0.276,0.009,21.389,15.704,-0.631,-9.74,120.968,0.009,0.532,41.814,"Curva 1: Strettissima, frenare.",4.12
119.701,0.047,-25.136,18.176,0.002,-10.918,1.0,0.0,0.0,-0.286,0.007,21.201,14.403,-0.151,-9.107,121.765,0.007,0.418,42.155,"Curva 1: Strettissima, frenare.",4.14
120.063,0.047,-25.349,17.871,0.016,-11.043,1.0,0.0,0.0,-0.312,0.018,21.005,13.464,0.651,-9.478,122.564,0.002,0.148,42.493,"Curva 1: Strettissima, frenare.",4.16
120.417,0.047,-25.568,17.549,0.008,-11.181,1.0,0.0,0.0,-0.309,0.012,20.806,14.635,-0.506,-9.648,123.353,0.006,0.355,42.823,"Curva 1: Strettissima, frenare.",4.18
120.765,0.047,-25.79,17.229,0.0,-11.321,1.0,0.0,0.0,-0.303,0.006,20.614,14.777,-0.521,-9.306,124.151,0.01,0.51,43.149,"Curva 1: Strettissima, frenare.",4.2
121.108,0.047,-26.011,16.926,0.009,-11.441,1.0,0.0,0.0,-0.322,0.014,20.428,13.587,0.411,-8.983,124.959,0.009,0.261,43.471,"Curva 1: Strettissima, frenare.",4.22
121.444,0.048,-26.237,16.611,0.011,-11.555,1.0,0.0,0.0,-0.332,0.017,20.232,13.819,0.041,-9.459,125.764,0.012,0.221,43.788,"Curva 1: Strettissima, frenare.",4.24
121.773,0.048,-26.466,16.287,0.004,-11.683,1.0,0.0,0.0,-0.322,0.012,20.041,14.771,-0.516,-9.187,126.571,0.016,0.461,44.098,"Curva 1: Strettissima, frenare.",4.26
122.097,0.048,-26.696,15.979,0.003,-11.799,1.0,0.0,0.0,-0.329,0.01,19.861,13.997,-0.132,-8.708,127.392,0.015,0.393,44.405,"Curva 1: Strettissima, frenare.",4.28
122.416,0.048,-26.927,15.675,0.012,-11.898,1.0,0.0,0.0,-0.349,0.018,19.677,13.288,0.419,-8.86,128.216,0.012,0.199,44.708,"Curva 1: Strettissima, frenare.",4.3
122.727,0.048,-27.162,15.36,0.007,-12.002,1.0,0.0,0.0,-0.351,0.014,19.489,13.961,-0.351,-9.009,129.036,0.015,0.33,45.005,"Curva 1: Strettissima, frenare.",4.32
123.032,0.048,-27.399,15.047,0.001,-12.106,1.0,0.0,0.0,-0.352,0.009,19.309,14.013,-0.4,-8.653,129.861,0.017,0.443,45.297,"Curva 1: Strettissima, frenare.",4.34
123.332,0.048,-27.637,14.747,0.007,-12.197,1.0,0.0,0.0,-0.368,0.014,19.134,13.226,0.229,-8.41,130.694,0.015,0.28,45.585,"Curva 1: Strettissima, frenare.",4.36
123.626,0.049,-27.877,14.438,0.01,-12.283,1.0,0.0,0.0,-0.376,0.017,18.952,13.472,0.097,-8.735,131.527,0.015,0.245,45.869,"Curva 1: Strettissima, frenare.",4.38
123.913,0.049,-28.12,14.121,0.006,-12.374,1.0,0.0,0.0,-0.372,0.014,18.772,14.061,-0.323,-8.619,132.365,0.017,0.398,46.146,"Curva 1: Strettissima, frenare.",4.4
124.194,0.049,-28.363,13.814,0.006,-12.46,1.0,0.0,0.0,-0.378,0.013,18.599,13.642,-0.071,-8.247,133.215,0.015,0.362,46.42,"Curva 1: Strettissima, frenare.",4.42
124.47,0.049,-28.608,13.511,0.012,-12.534,1.0,0.0,0.0,-0.392,0.018,18.426,13.187,0.26,-8.295,134.07,0.012,0.232,46.689,"Curva 1: Strettissima, frenare.",4.44
124.739,0.049,-28.855,13.201,0.009,-12.608,1.0,0.0,0.0,-0.396,0.015,18.25,13.553,-0.229,-8.407,134.927,0.012,0.307,46.953,"Curva 1: Strettissima, frenare.",4.46
125.002,0.049,-29.104,12.892,0.005,-12.681,1.0,0.0,0.0,-0.399,0.011,18.079,13.651,-0.312,-8.129,135.792,0.011,0.388,47.212,"Curva 1: Strettissima, frenare.",4.48
125.26,0.049,-29.353,12.594,0.008,-12.746,1.0,0.0,0.0,-0.413,0.013,17.913,13.036,0.093,-7.893,136.664,0.008,0.281,47.467,"Curva 1: Strettissima, frenare.",4.5
125.511,0.05,-29.604,12.294,0.01,-12.802,1.0,0.0,0.0,-0.426,0.014,17.744,12.943,0.04,-8.049,137.535,0.008,0.239,47.718,"Curva 1: Strettissima, frenare.",4.52
125.756,0.05,-29.856,11.989,0.006,-12.859,1.0,0.0,0.0,-0.43,0.012,17.576,13.285,-0.286,-7.977,138.406,0.011,0.342,47.963,"Curva 1: Strettissima, frenare.",4.54
125.996,0.05,-30.109,11.689,0.005,-12.912,1.0,0.0,0.0,-0.437,0.012,17.412,13.121,-0.118,-7.753,139.283,0.014,0.336,48.204,"Curva 1: Strettissima, frenare.",4.56
126.23,0.05,-30.363,11.392,0.009,-12.959,1.0,0.0,0.0,-0.446,0.016,17.248,12.912,0.142,-7.752,140.165,0.015,0.249,48.441,"Curva 1: Strettissima, frenare.",4.58
126.457,0.05,-30.618,11.089,0.007,-13.001,1.0,0.0,0.0,-0.45,0.015,17.082,13.11,-0.145,-7.85,141.049,0.019,0.284,48.673,"Curva 1: Strettissima, frenare.",4.6
126.679,0.05,-30.875,10.786,0.004,-13.043,1.0,0.0,0.0,-0.452,0.014,16.92,13.215,-0.233,-7.675,141.94,0.023,0.345,48.9,"Curva 1: Strettissima, frenare.",4.62
126.895,0.05,-31.131,10.491,0.006,-13.079,1.0,0.0,0.0,-0.46,0.016,16.76,12.839,0.011,-7.504,142.839,0.025,0.286,49.123,"Curva 1: Strettissima, frenare.",4.64
127.105,0.051,-31.388,10.196,0.007,-13.108,1.0,0.0,0.0,-0.469,0.017,16.6,12.758,0.004,-7.569,143.742,0.027,0.252,49.341,"Curva 1: Strettissima, frenare.",4.66
127.309,0.051,-31.647,9.898,0.004,-13.135,1.0,0.0,0.0,-0.473,0.016,16.44,12.912,-0.227,-7.509,144.648,0.03,0.313,49.555,"Curva 1: Strettissima, frenare.",4.68
127.508,0.051,-31.905,9.606,0.003,-13.158,1.0,0.0,0.0,-0.481,0.015,16.284,12.713,-0.137,-7.305,145.56,0.032,0.314,49.764,"Curva 1: Strettissima, frenare.",4.7
127.701,0.051,-32.164,9.317,0.005,-13.175,1.0,0.0,0.0,-0.491,0.017,16.129,12.499,0.035,-7.281,146.476,0.034,0.259,49.969,"Curva 1: Strettissima, frenare.",4.72
127.888,0.051,-32.424,9.024,0.004,-13.188,1.0,0.0,0.0,-0.496,0.016,15.972,12.689,-0.131,-7.328,147.396,0.037,0.282,50.17,"Curva 1: Strettissima, frenare.",4.74
128.069,0.051,-32.683,8.732,0.001,-13.199,1.0,0.0,0.0,-0.499,0.015,15.818,12.736,-0.189,-7.225,148.322,0.039,0.321,50.366,"Curva 1: Strettissima, frenare.",4.76
128.245,0.051,-32.943,8.444,0.002,-13.205,1.0,0.0,0.0,-0.506,0.016,15.666,12.522,-0.028,-7.084,149.255,0.04,0.285,50.557,"Curva 1: Strettissima, frenare.",4.78
128.416,0.051,-33.203,8.157,0.003,-13.205,1.0,0.0,0.0,-0.514,0.016,15.513,12.434,-0.031,-7.114,150.192,0.042,0.263,50.745,"Curva 1: Strettissima, frenare.",4.8
128.58,0.051,-33.463,7.869,0.001,-13.203,1.0,0.0,0.0,-0.518,0.015,15.361,12.562,-0.169,-7.069,151.135,0.044,0.303,50.927,"Curva 1: Strettissima, frenare.",4.82
128.739,0.051,-33.723,7.585,0.0,-13.196,1.0,0.0,0.0,-0.524,0.015,15.212,12.402,-0.103,-6.928,152.083,0.045,0.305,51.106,"Curva 1: Strettissima, frenare.",4.84
128.893,0.051,-33.983,7.306,0.002,-13.185,1.0,0.0,0.0,-0.533,0.016,15.064,12.179,0.025,-6.867,153.034,0.045,0.268,51.28,"Curva 1: Strettissima, frenare.",4.86
129.04,0.051,-34.242,7.025,0.002,-13.168,1.0,0.0,0.0,-0.538,0.017,14.915,12.273,-0.073,-6.901,153.988,0.047,0.286,51.45,"Curva 1: Strettissima, frenare.",4.88
129.182,0.051,-34.502,6.742,0.001,-13.149,1.0,0.0,0.0,-0.54,0.016,14.767,12.401,-0.124,-6.824,154.949,0.048,0.318,51.615,"Curva 1: Strettissima, frenare.",4.9
129.32,0.051,-34.761,6.465,0.003,-13.126,1.0,0.0,0.0,-0.545,0.017,14.622,12.179,0.023,-6.73,155.915,0.047,0.286,51.776,"Curva 1: Strettissima, frenare.",4.92
129.451,0.052,-35.019,6.19,0.004,-13.097,1.0,0.0,0.0,-0.551,0.018,14.476,12.073,0.013,-6.724,156.884,0.046,0.265,51.933,"Curva 1: Strettissima, frenare.",4.94
129.577,0.052,-35.277,5.915,0.003,-13.065,1.0,0.0,0.0,-0.554,0.017,14.331,12.114,-0.136,-6.674,157.856,0.045,0.298,52.086,"Curva 1: Strettissima, frenare.",4.96
129.698,0.052,-35.535,5.645,0.002,-13.029,1.0,0.0,0.0,-0.559,0.015,14.189,11.954,-0.118,-6.539,158.831,0.043,0.298,52.234,"Curva 1: Strettissima, frenare.",4.98
129.814,0.052,-35.792,5.38,0.002,-12.989,1.0,0.0,0.0,-0.566,0.015,14.047,11.719,-0.033,-6.474,159.808,0.041,0.264,52.379,"Curva 1: Strettissima, frenare.",5.0
129.924,0.052,-36.048,5.117,0.001,-12.943,1.0,0.0,0.0,-0.572,0.014,13.906,11.681,-0.105,-6.468,160.783,0.039,0.271,52.519,"Curva 1: Strettissima, frenare.",5.02
130.029,0.052,-36.303,4.857,0.0,-12.895,1.0,0.0,0.0,-0.576,0.012,13.767,11.622,-0.136,-6.371,161.758,0.038,0.293,52.654,"Curva 1: Strettissima, frenare.",5.04
130.129,0.052,-36.557,4.602,0.001,-12.843,1.0,0.0,0.0,-0.582,0.012,13.63,11.394,-0.022,-6.278,162.73,0.037,0.274,52.786,"Curva 1: Strettissima, frenare.",5.06
130.224,0.052,-36.81,4.35,0.002,-12.786,1.0,0.0,0.0,-0.586,0.013,13.493,11.289,-0.008,-6.268,163.698,0.037,0.26,52.914,"Curva 1: Strettissima, frenare.",5.08
130.314,0.052,-37.062,4.099,0.002,-12.725,1.0,0.0,0.0,-0.587,0.014,13.356,11.284,-0.024,-6.248,164.662,0.038,0.277,53.038,"Curva 1: Strettissima, frenare.",5.1
130.399,0.052,-37.313,3.852,0.003,-12.661,1.0,0.0,0.0,-0.587,0.015,13.221,11.177,-0.021,-6.169,165.62,0.039,0.277,53.158,"Curva 1: Strettissima, frenare.",5.12
130.48,0.052,-37.563,3.609,0.004,-12.593,1.0,0.0,0.0,-0.586,0.016,13.087,10.997,0.005,-6.142,166.572,0.04,0.257,53.274,"Curva 1: Strettissima, frenare.",5.14
130.555,0.052,-37.812,3.37,0.004,-12.52,1.0,0.0,0.0,-0.584,0.016,12.953,10.924,-0.054,-6.124,167.517,0.041,0.259,53.386,"Curva 1: Strettissima, frenare.",5.16
130.626,0.052,-38.059,3.133,0.003,-12.445,1.0,0.0,0.0,-0.579,0.015,12.82,10.844,-0.112,-6.068,168.457,0.042,0.269,53.494,"Curva 1: Strettissima, frenare.",5.18
130.692,0.052,-38.305,2.901,0.003,-12.366,1.0,0.0,0.0,-0.574,0.015,12.689,10.69,-0.07,-6.011,169.391,0.042,0.258,53.598,"Curva 1: Strettissima, frenare.",5.2
130.753,0.052,-38.549,2.671,0.003,-12.284,1.0,0.0,0.0,-0.567,0.014,12.558,10.62,-0.057,-5.99,170.319,0.042,0.25,53.699,"Curva 1: Strettissima, frenare.",5.22
130.81,0.052,-38.792,2.443,0.002,-12.198,1.0,0.146,0.0,-0.557,0.014,12.428,10.612,-0.089,-5.951,171.242,0.043,0.26,53.795,"Curva 1: Strettissima, frenare.",5.24
130.862,0.052,-39.033,2.218,0.002,-12.11,1.0,0.146,0.0,-0.545,0.013,12.299,10.56,-0.06,-5.906,172.16,0.043,0.261,53.888,"Curva 1: Strettissima, frenare.",5.26
130.91,0.052,-39.272,1.995,0.002,-12.02,1.0,0.434,0.0,-0.53,0.014,12.172,10.539,-0.013,-5.837,173.071,0.043,0.252,53.977,"Curva 1: Strettissima, frenare.",5.28
130.953,0.052,-39.51,1.771,0.003,-11.927,1.0,0.434,0.0,-0.509,0.014,12.047,10.618,-0.038,-5.771,173.973,0.043,0.258,54.063,"Curva 1: Strettissima, frenare.",5.3
130.992,0.052,-39.746,1.547,0.003,-11.837,1.0,0.434,0.0,-0.481,0.014,11.928,10.765,-0.043,-5.5,174.866,0.041,0.271,54.144,"Curva 1: Strettissima, frenare.",5.32
131.026,0.052,-39.98,1.326,0.004,-11.747,1.0,0.434,0.0,-0.45,0.013,11.813,10.698,-0.027,-5.275,175.745,0.038,0.262,54.222,"Curva 1: Strettissima, frenare.",5.34
131.055,0.052,-40.213,1.107,0.004,-11.659,1.0,0.434,0.0,-0.415,0.012,11.705,10.635,-0.036,-5.04,176.603,0.033,0.251,54.296,"Curva 1: Strettissima, frenare.",5.36
131.08,0.052,-40.444,0.891,0.003,-11.571,1.0,0.524,0.0,-0.372,0.011,11.6,10.601,-0.085,-4.881,177.434,0.029,0.258,54.366,"Curva 1: Strettissima, frenare.",5.38
131.101,0.052,-40.673,0.669,0.002,-11.482,1.0,0.658,0.0,-0.317,0.009,11.497,10.95,-0.111,-4.832,178.243,0.027,0.283,54.431,"Curva 1: Strettissima, frenare.",5.4
131.116,0.053,-40.901,0.438,0.002,-11.393,1.0,0.658,0.0,-0.247,0.009,11.399,11.489,-0.037,-4.62,179.038,0.025,0.298,54.493,"Curva 1: Strettissima, frenare.",5.42
131.127,0.053,-41.127,0.212,0.004,-11.308,1.0,0.658,0.0,-0.175,0.01,11.309,11.303,0.036,-4.278,179.816,0.023,0.268,54.551,"Curva 1: Strettissima, frenare.",5.44
131.134,0.053,-41.351,-0.009,0.004,-11.229,1.0,0.952,0.0,-0.104,0.008,11.228,11.061,-0.053,-3.866,180.575,0.018,0.254,54.605,"Curva 1: Strettissima, frenare.",5.46
131.136,0.053,-41.575,-0.222,0.002,-11.158,1.0,0.952,0.0,-0.034,0.004,11.161,10.751,-0.173,-3.263,181.316,0.01,0.265,54.655,"Curva 1: Strettissima, frenare.",5.48
131.134,0.052,-41.797,-0.425,0.0,-11.106,1.0,0.952,0.0,0.028,-0.001,11.114,10.234,-0.144,-2.251,182.045,-0.004,0.248,54.702,"Curva 1: Strettissima, frenare.",5.5
131.128,0.052,-42.019,-0.616,-0.002,-11.071,1.0,0.952,0.0,0.081,-0.006,11.088,9.638,-0.103,-1.296,182.767,359.978,0.216,54.746,"Curva 1: Strettissima, frenare.",5.52
131.118,0.052,-42.24,-0.799,-0.004,-11.049,1.0,0.952,0.0,0.127,-0.012,11.077,9.193,-0.135,-0.551,183.48,359.96,0.215,54.787,"Curva 1: Strettissima, frenare.",5.54
131.105,0.052,-42.462,-0.973,-0.005,-11.043,1.0,1.0,0.0,0.164,-0.016,11.085,8.678,-0.103,0.366,184.186,359.944,0.214,54.826,"Curva 1: Strettissima, frenare.",5.56
131.088,0.052,-42.683,-1.138,-0.004,-11.055,1.0,1.0,0.0,0.192,-0.019,11.112,8.181,0.004,1.268,184.887,359.929,0.19,54.862,"Curva 1: Strettissima, frenare.",5.58
131.068,0.051,-42.905,-1.3,-0.003,-11.08,1.0,1.0,0.0,0.215,-0.02,11.154,7.919,0.016,2.031,185.588,359.917,0.186,54.896,"Curva 1: Strettissima, frenare.",5.6
131.045,0.051,-43.128,-1.458,-0.002,-11.118,1.0,1.0,0.0,0.23,-0.022,11.21,7.643,0.017,2.742,186.294,359.907,0.191,54.928,"Curva 1: Strettissima, frenare.",5.62
131.019,0.051,-43.353,-1.611,-0.001,-11.165,1.0,1.0,0.0,0.237,-0.022,11.278,7.323,0.026,3.28,187.005,359.898,0.178,54.958,"Curva 1: Strettissima, frenare.",5.64
130.99,0.051,-43.578,-1.762,-0.001,-11.218,1.0,1.0,0.0,0.239,-0.023,11.353,7.141,0.007,3.635,187.721,359.892,0.168,54.986,"Curva 1: Strettissima, frenare.",5.66
130.958,0.051,-43.804,-1.914,-0.001,-11.274,1.0,1.0,0.0,0.238,-0.024,11.433,7.096,-0.051,3.922,188.445,359.888,0.179,55.013,"Curva 1: Strettissima, frenare.",5.68
130.923,0.051,-44.032,-2.066,-0.001,-11.334,1.0,1.0,0.0,0.232,-0.025,11.519,7.027,-0.038,4.17,189.177,359.886,0.18,55.038,"Curva 1: Strettissima, frenare.",5.7
130.885,0.051,-44.261,-2.219,-0.002,-11.395,1.0,1.0,0.0,0.224,-0.026,11.607,7.021,-0.044,4.316,189.917,359.883,0.171,55.062,"Curva 1: Strettissima, frenare.",5.72
130.844,0.051,-44.491,-2.375,-0.002,-11.456,1.0,1.0,0.0,0.214,-0.027,11.697,7.07,-0.05,4.413,190.665,359.882,0.176,55.084,"Curva 1: Strettissima, frenare.",5.74
130.8,0.051,-44.723,-2.531,-0.002,-11.516,1.0,1.0,0.0,0.2,-0.028,11.789,7.044,-0.049,4.519,191.42,359.88,0.179,55.104,"Curva 1: Strettissima, frenare.",5.76
130.752,0.051,-44.955,-2.689,-0.002,-11.577,1.0,1.0,0.0,0.186,-0.028,11.884,7.111,-0.03,4.624,192.18,359.878,0.179,55.123,"Curva 1: Strettissima, frenare.",5.78
130.702,0.051,-45.19,-2.851,-0.002,-11.636,1.0,1.0,0.0,0.172,-0.028,11.979,7.213,-0.017,4.679,192.945,359.876,0.18,55.14,"Curva 1: Strettissima, frenare.",5.8
130.648,0.051,-45.425,-3.016,-0.002,-11.693,1.0,1.0,0.0,0.158,-0.029,12.075,7.346,-0.034,4.749,193.716,359.874,0.187,55.155,"Curva 1: Strettissima, frenare.",5.82
130.591,0.051,-45.662,-3.184,-0.002,-11.749,1.0,1.0,0.0,0.143,-0.029,12.172,7.429,-0.017,4.814,194.491,359.872,0.189,55.169,"Curva 1: Strettissima, frenare.",5.84
130.53,0.051,-45.899,-3.356,-0.001,-11.803,1.0,1.0,0.0,0.128,-0.03,12.27,7.578,-0.02,4.863,195.271,359.87,0.19,55.18,"Curva 1: Strettissima, frenare.",5.86
130.466,0.051,-46.138,-3.532,-0.001,-11.854,1.0,1.0,0.0,0.115,-0.03,12.369,7.751,-0.028,4.897,196.058,359.868,0.197,55.19,"Curva 1: Strettissima, frenare.",5.88
130.399,0.051,-46.378,-3.712,-0.001,-11.903,1.0,1.0,0.0,0.102,-0.031,12.468,7.889,-0.047,4.939,196.851,359.867,0.201,55.198,"Curva 1: Strettissima, frenare.",5.9
130.327,0.05,-46.619,-3.893,-0.001,-11.95,1.0,1.0,0.0,0.087,-0.031,12.568,7.936,-0.039,4.999,197.649,359.865,0.197,55.203,"Curva 1: Strettissima, frenare.",5.92
130.252,0.05,-46.861,-4.076,-0.002,-11.995,1.0,1.0,0.0,0.07,-0.032,12.669,7.943,-0.064,5.031,198.45,359.864,0.195,55.207,"Curva 1: Strettissima, frenare.",5.94
130.174,0.05,-47.104,-4.262,-0.002,-12.038,1.0,1.0,0.0,0.053,-0.033,12.77,8.073,-0.068,5.086,199.254,359.862,0.205,55.209,"Curva 1: Strettissima, frenare.",5.96
130.091,0.05,-47.348,-4.45,-0.003,-12.079,1.0,1.0,0.0,0.036,-0.034,12.872,8.142,-0.071,5.135,200.061,359.86,0.207,55.208,"Curva 1: Strettissima, frenare.",5.98
130.005,0.05,-47.593,-4.641,-0.002,-12.117,1.0,1.0,0.0,0.02,-0.035,12.975,8.258,-0.024,5.183,200.871,359.858,0.205,55.206,"Curva 1: Strettissima, frenare.",6.0
129.915,0.05,-47.839,-4.836,-0.002,-12.152,1.0,1.0,0.0,0.003,-0.035,13.078,8.394,-0.027,5.21,201.684,359.856,0.211,55.201,"Curva 1: Strettissima, frenare.",6.02
129.821,0.05,-48.085,-5.034,-0.002,-12.183,1.0,1.0,0.0,-0.012,-0.035,13.182,8.568,-0.04,5.256,202.5,359.855,0.219,55.194,"Curva 1: Strettissima, frenare.",6.04
129.723,0.05,-48.332,-5.236,-0.001,-12.212,1.0,1.0,0.0,-0.027,-0.035,13.287,8.695,-0.022,5.296,203.322,359.853,0.219,55.185,"Curva 1: Strettissima, frenare.",6.06
129.62,0.05,-48.58,-5.441,-0.001,-12.236,1.0,1.0,0.0,-0.041,-0.036,13.391,8.85,-0.027,5.31,204.148,359.851,0.22,55.173,"Curva 1: Strettissima, frenare.",6.08
129.514,0.05,-48.828,-5.648,-0.001,-12.258,1.0,1.0,0.0,-0.057,-0.036,13.496,8.935,-0.057,5.355,204.979,359.85,0.223,55.159,"Curva 1: Strettissima, frenare.",6.1
129.403,0.05,-49.076,-5.855,-0.002,-12.277,1.0,1.0,0.0,-0.075,-0.037,13.602,8.902,-0.068,5.396,205.813,359.849,0.221,55.143,"Curva 1: Strettissima, frenare.",6.12
129.289,0.05,-49.325,-6.065,-0.002,-12.294,1.0,1.0,0.0,-0.093,-0.038,13.708,9.009,-0.08,5.425,206.649,359.847,0.225,55.124,"Curva 1: Strettissima, frenare.",6.14
129.169,0.05,-49.575,-6.278,-0.003,-12.306,1.0,1.0,0.0,-0.111,-0.039,13.814,9.158,-0.076,5.445,207.488,359.846,0.233,55.102,"Curva 1: Strettissima, frenare.",6.16
129.046,0.05,-49.825,-6.492,-0.003,-12.314,1.0,1.0,0.0,-0.129,-0.04,13.92,9.245,-0.052,5.478,208.33,359.844,0.232,55.078,"Curva 1: Strettissima, frenare.",6.18
128.918,0.05,-50.074,-6.709,-0.002,-12.319,1.0,1.0,0.0,-0.148,-0.041,14.027,9.335,-0.038,5.496,209.175,359.842,0.23,55.052,"Curva 1: Strettissima, frenare.",6.2
128.786,0.05,-50.324,-6.929,-0.002,-12.32,1.0,1.0,0.0,-0.165,-0.041,14.133,9.518,-0.057,5.518,210.024,359.84,0.239,55.022,"Curva 1: Strettissima, frenare.",6.22
128.649,0.05,-50.574,-7.152,-0.002,-12.316,1.0,1.0,0.0,-0.183,-0.041,14.24,9.645,-0.035,5.549,210.878,359.839,0.244,54.99,"Curva 1: Strettissima, frenare.",6.24
128.508,0.05,-50.825,-7.376,-0.002,-12.309,1.0,1.0,0.0,-0.202,-0.041,14.348,9.718,-0.033,5.581,211.736,359.837,0.24,54.956,"Curva 1: Strettissima, frenare.",6.26
128.363,0.05,-51.074,-7.601,-0.001,-12.297,0.826,1.0,0.0,-0.221,-0.042,14.455,9.794,-0.053,5.593,212.596,359.836,0.241,54.919,"Curva 1: Strettissima, frenare.",6.28
128.212,0.049,-51.324,-7.828,-0.002,-12.282,0.826,1.0,0.0,-0.241,-0.043,14.562,9.907,-0.09,5.611,213.461,359.835,0.25,54.878,"Curva 1: Strettissima, frenare.",6.3
128.057,0.049,-51.574,-8.056,-0.002,-12.262,0.69,1.0,0.0,-0.262,-0.044,14.669,9.956,-0.075,5.627,214.328,359.834,0.249,54.836,"Curva 1: Strettissima, frenare.",6.32
127.898,0.049,-51.823,-8.281,-0.002,-12.244,0.69,1.0,0.0,-0.289,-0.045,14.778,9.722,-0.057,5.728,215.193,359.831,0.23,54.79,"Curva 1: Strettissima, frenare.",6.34
127.734,0.049,-52.072,-8.498,-0.003,-12.228,0.69,1.0,0.0,-0.324,-0.046,14.888,9.218,-0.097,5.762,216.043,359.829,0.21,54.742,"Curva 1: Strettissima, frenare.",6.36
127.566,0.049,-52.32,-8.718,-0.005,-12.208,0.69,1.0,0.0,-0.354,-0.049,14.998,9.429,-0.15,5.82,216.882,359.828,0.239,54.691,"Curva 1: Strettissima, frenare.",6.38
127.392,0.049,-52.568,-8.941,-0.006,-12.185,0.69,1.0,0.0,-0.38,-0.05,15.109,9.54,-0.088,5.878,217.712,359.827,0.252,54.637,"Curva 1: Strettissima, frenare.",6.4
127.215,0.049,-52.816,-9.166,-0.004,-12.157,0.69,1.0,0.0,-0.403,-0.049,15.22,9.682,0.037,5.911,218.534,359.825,0.234,54.58,"Curva 1: Strettissima, frenare.",6.42
127.032,0.049,-53.062,-9.396,-0.002,-12.121,0.642,1.0,0.0,-0.421,-0.048,15.33,10.016,0.019,5.904,219.354,359.823,0.246,54.521,"Curva 1: Strettissima, frenare.",6.44
126.845,0.049,-53.309,-9.624,-0.002,-12.086,0.642,1.0,0.0,-0.441,-0.048,15.443,9.846,-0.029,6.02,220.166,359.821,0.248,54.459,"Curva 1: Strettissima, frenare.",6.46
126.654,0.049,-53.554,-9.843,-0.001,-12.057,0.642,1.0,0.0,-0.471,-0.049,15.558,9.192,-0.024,6.099,220.959,359.818,0.205,54.394,"Curva 1: Strettissima, frenare.",6.48
126.458,0.049,-53.799,-10.066,-0.003,-12.024,0.593,1.0,0.0,-0.493,-0.051,15.673,9.428,-0.144,6.138,221.736,359.817,0.225,54.326,"Curva 1: Strettissima, frenare.",6.5
126.257,0.049,-54.043,-10.288,-0.005,-11.988,0.593,1.0,0.0,-0.513,-0.053,15.789,9.429,-0.17,6.199,222.498,359.816,0.252,54.256,"Curva 1: Strettissima, frenare.",6.52
126.051,0.048,-54.287,-10.508,-0.005,-11.953,0.593,1.0,0.0,-0.535,-0.054,15.906,9.149,-0.036,6.267,223.241,359.814,0.215,54.183,"Curva 1: Strettissima, frenare.",6.54
125.841,0.048,-54.53,-10.731,-0.004,-11.913,0.555,1.0,0.0,-0.548,-0.055,16.024,9.444,-0.027,6.294,223.971,359.812,0.22,54.107,"Curva 1: Strettissima, frenare.",6.56
125.626,0.048,-54.771,-10.956,-0.005,-11.869,0.516,1.0,0.0,-0.558,-0.056,16.143,9.573,-0.102,6.354,224.689,359.81,0.252,54.028,"Curva 1: Strettissima, frenare.",6.58
125.407,0.048,-55.012,-11.178,-0.003,-11.827,0.516,1.0,0.0,-0.57,-0.056,16.264,9.274,0.007,6.453,225.391,359.807,0.226,53.948,"Curva 1: Strettissima, frenare.",6.6
125.183,0.048,-55.252,-11.403,-0.002,-11.782,0.39,1.0,0.0,-0.577,-0.056,16.386,9.413,-0.004,6.506,226.08,359.805,0.216,53.864,"Curva 1: Strettissima, frenare.",6.62
124.955,0.048,-55.491,-11.628,-0.003,-11.734,0.39,1.0,0.0,-0.582,-0.058,16.51,9.444,-0.095,6.575,226.756,359.802,0.239,53.777,"Curva 1: Strettissima, frenare.",6.64
124.722,0.048,-55.729,-11.848,-0.003,-11.692,0.39,1.0,0.0,-0.59,-0.059,16.635,9.025,-0.076,6.652,227.412,359.8,0.219,53.689,"Curva 1: Strettissima, frenare.",6.66
124.484,0.048,-55.966,-12.07,-0.004,-11.646,0.293,1.0,0.0,-0.593,-0.061,16.762,9.102,-0.067,6.72,228.051,359.798,0.211,53.597,"Curva 1: Strettissima, frenare.",6.68
124.242,0.048,-56.202,-12.289,-0.005,-11.602,0.293,1.0,0.0,-0.596,-0.063,16.89,8.897,-0.109,6.807,228.669,359.796,0.218,53.503,"Curva 1: Strettissima, frenare.",6.7
123.995,0.048,-56.437,-12.501,-0.005,-11.568,0.293,1.0,0.0,-0.604,-0.065,17.021,8.22,-0.088,6.889,229.253,359.794,0.187,53.407,"Curva 1: Strettissima, frenare.",6.72
123.744,0.047,-56.672,-12.716,-0.006,-11.53,0.293,1.0,0.0,-0.602,-0.066,17.154,8.359,-0.095,6.984,229.809,359.792,0.196,53.308,"Curva 1: Strettissima, frenare.",6.74
123.488,0.047,-56.905,-12.933,-0.007,-11.489,0.293,1.0,0.0,-0.591,-0.068,17.289,8.524,-0.083,7.068,230.341,359.79,0.224,53.207,"Curva 1: Strettissima, frenare.",6.76
123.228,0.047,-57.137,-13.152,-0.005,-11.447,0.293,1.0,0.0,-0.574,-0.068,17.427,8.518,0.023,7.169,230.851,359.787,0.21,53.104,"Curva 1: Strettissima, frenare.",6.78
122.963,0.047,-57.369,-13.373,-0.003,-11.404,0.187,1.0,0.0,-0.553,-0.068,17.567,8.588,0.037,7.277,231.346,359.783,0.198,52.999,"Curva 1: Strettissima, frenare.",6.8
122.694,0.047,-57.599,-13.593,-0.003,-11.364,0.187,1.0,0.0,-0.532,-0.069,17.709,8.366,-0.054,7.395,231.822,359.779,0.2,52.891,"Curva 1: Strettissima, frenare.",6.82
122.42,0.047,-57.829,-13.806,-0.004,-11.333,0.187,1.0,0.0,-0.515,-0.072,17.854,7.726,-0.075,7.481,232.268,359.776,0.176,52.781,"Curva 1: Strettissima, frenare.",6.84
122.142,0.047,-58.058,-14.019,-0.005,-11.303,0.08,1.0,0.0,-0.492,-0.075,18.002,7.677,-0.119,7.589,232.686,359.773,0.179,52.67,"Curva 1: Strettissima, frenare.",6.86
121.86,0.047,-58.286,-14.23,-0.006,-11.279,0.08,1.0,0.0,-0.467,-0.077,18.152,7.297,-0.128,7.711,233.072,359.771,0.176,52.556,"Curva 1: Strettissima, frenare.",6.88
121.573,0.046,-58.514,-14.434,-0.007,-11.268,0.08,1.0,0.0,-0.445,-0.08,18.306,6.539,-0.082,7.825,233.416,359.769,0.137,52.441,"Curva 1: Strettissima, frenare.",6.9
121.282,0.046,-58.741,-14.64,-0.008,-11.256,0.041,1.0,0.0,-0.412,-0.082,18.462,6.547,-0.087,7.961,233.723,359.766,0.15,52.325,"Curva 1: Strettissima, frenare.",6.92
120.986,0.046,-58.968,-14.843,-0.008,-11.253,0.041,1.0,0.0,-0.377,-0.084,18.622,6.099,-0.069,8.096,233.992,359.763,0.153,52.207,"Curva 1: Strettissima, frenare.",6.94
120.687,0.046,-59.196,-15.036,-0.007,-11.266,0.022,1.0,0.0,-0.345,-0.085,18.785,5.15,0.013,8.238,234.211,359.76,0.095,52.088,"Curva 1: Strettissima, frenare.",6.96
120.383,0.046,-59.422,-15.23,-0.007,-11.284,0.022,1.0,0.0,-0.305,-0.087,18.952,4.908,-0.03,8.392,234.387,359.756,0.097,51.968,"Curva 1: Strettissima, frenare.",6.98
120.075,0.046,-59.649,-15.421,-0.007,-11.309,0.051,1.0,0.0,-0.259,-0.089,19.121,4.488,-0.053,8.505,234.521,359.752,0.118,51.847,"Curva 1: Strettissima, frenare.",7.0
119.764,0.045,-59.877,-15.606,-0.006,-11.345,0.051,1.0,0.0,-0.214,-0.091,19.293,3.893,-0.019,8.599,234.617,359.749,0.083,51.726,"Curva 1: Strettissima, frenare.",7.02
119.448,0.045,-60.106,-15.785,-0.006,-11.391,0.051,1.0,0.0,-0.17,-0.092,19.465,3.314,-0.021,8.611,234.685,359.747,0.049,51.606,"Curva 1: Strettissima, frenare.",7.04
119.129,0.045,-60.335,-15.958,-0.006,-11.441,0.051,1.0,0.0,-0.127,-0.093,19.635,2.945,-0.059,8.534,234.733,359.746,0.067,51.485,"Curva 1: Strettissima, frenare.",7.06
118.807,0.045,-60.565,-16.123,-0.007,-11.5,0.051,1.0,0.0,-0.091,-0.094,19.803,2.362,-0.058,8.399,234.765,359.747,0.059,51.365,"Curva 1: Strettissima, frenare.",7.08
118.482,0.045,-60.797,-16.277,-0.006,-11.566,0.051,1.0,0.0,-0.064,-0.094,19.968,1.753,-0.027,8.236,234.788,359.749,0.02,51.247,"Curva 1: Strettissima, frenare.",7.1
118.153,0.045,-61.03,-16.426,-0.006,-11.635,0.129,1.0,0.0,-0.042,-0.094,20.128,1.453,-0.032,8.036,234.809,359.752,0.02,51.129,"Curva 1: Strettissima, frenare.",7.12
117.822,0.045,-61.264,-16.568,-0.006,-11.704,0.129,1.0,0.0,-0.024,-0.093,20.285,1.265,-0.033,7.82,234.829,359.754,0.042,51.013,"Curva 1: Strettissima, frenare.",7.14
117.488,0.045,-61.499,-16.705,-0.006,-11.774,0.129,1.0,0.0,-0.011,-0.093,20.437,1.066,-0.009,7.614,234.853,359.756,0.026,50.899,"Curva 1: Strettissima, frenare.",7.16
117.152,0.045,-61.737,-16.836,-0.005,-11.846,0.129,1.0,0.0,-0.005,-0.092,20.586,0.857,-0.001,7.427,234.883,359.758,0.005,50.787,"Curva 1: Strettissima, frenare.",7.18
116.812,0.044,-61.975,-16.968,-0.005,-11.91,0.129,1.0,0.0,0.004,-0.092,20.731,1.173,-0.013,7.263,234.924,359.758,0.037,4.907,,7.2
116.471,0.044,-62.215,-17.103,-0.005,-11.966,0.129,1.0,0.0,0.014,-0.093,20.873,1.587,-0.024,7.104,234.983,359.758,0.066,4.942,,7.22
116.126,0.044,-62.456,-17.232,-0.005,-12.023,0.09,1.0,0.0,0.015,-0.093,21.012,1.366,-0.018,6.936,235.056,359.758,0.023,5.012,,7.24
115.78,0.044,-62.698,-17.36,-0.005,-12.076,0.09,1.0,0.0,0.014,-0.094,21.147,1.447,-0.036,6.774,235.139,359.759,0.017,5.116,,7.26
115.43,0.044,-62.941,-17.488,-0.005,-12.125,0.0,1.0,0.0,0.015,-0.094,21.28,1.655,-0.046,6.643,235.225,359.76,0.06,5.252,,7.28
115.078,0.044,-63.185,-17.612,-0.005,-12.178,0.0,1.0,0.0,0.012,-0.095,21.411,1.351,-0.028,6.568,235.306,359.76,0.037,5.419,,7.3
114.724,0.044,-63.43,-17.73,-0.005,-12.234,0.0,1.0,0.0,0.005,-0.095,21.541,1.028,-0.029,6.462,235.379,359.76,-0.004,5.615,,7.32
114.368,0.044,-63.677,-17.845,-0.005,-12.291,0.0,1.0,0.0,0.002,-0.096,21.668,0.933,-0.028,6.377,235.436,359.759,0.018,5.837,,7.34
114.009,0.044,-63.924,-17.952,-0.005,-12.359,0.0,1.0,0.0,-0.004,-0.097,21.795,0.242,-0.03,6.328,235.466,359.759,0.01,6.083,,7.36
113.648,0.044,-64.173,-18.057,-0.005,-12.428,0.0,1.0,0.0,-0.006,-0.098,21.92,0.104,-0.026,6.284,235.477,359.757,359.988,6.352,,7.38
113.284,0.043,-64.423,-18.162,-0.005,-12.496,0.0,1.0,0.0,-0.002,-0.099,22.045,0.205,-0.021,6.241,235.478,359.756,0.006,6.639,,7.4
112.919,0.043,-64.674,-18.266,-0.005,-12.564,0.0,1.0,0.0,0.001,-0.1,22.169,0.135,-0.014,6.212,235.475,359.755,0.014,6.945,,7.42
112.552,0.043,-64.927,-18.367,-0.005,-12.635,0.0,1.0,0.0,0.001,-0.1,22.293,-0.053,-0.019,6.181,235.473,359.754,359.99,7.266,,7.44
112.182,0.043,-65.181,-18.469,-0.005,-12.704,0.0,1.0,0.0,0.002,-0.102,22.416,0.015,-0.026,6.155,235.471,359.752,359.993,7.602,,7.46
111.811,0.043,-65.436,-18.57,-0.005,-12.773,0.0,1.0,0.0,0.004,-0.103,22.539,0.036,-0.031,6.128,235.469,359.751,0.011,7.951,,7.48
111.438,0.043,-65.693,-18.67,-0.005,-12.844,0.0,1.0,0.0,0.002,-0.104,22.661,-0.089,-0.03,6.102,235.469,359.75,-0.001,8.312,,7.5
111.062,0.043,-65.951,-18.769,-0.005,-12.914,0.0,1.0,0.0,0.0,-0.105,22.782,-0.083,-0.037,6.075,235.469,359.749,359.988,8.684,,7.52
110.685,0.043,-66.211,-18.869,-0.005,-12.982,0.0,1.0,0.0,0.001,-0.106,22.903,0.032,-0.025,6.049,235.469,359.748,0.005,9.065,,7.54
110.305,0.043,-66.472,-18.968,-0.005,-13.051,0.0,1.0,0.0,0.001,-0.107,23.024,-0.007,-0.03,6.026,235.469,359.747,0.007,9.455,,7.56
109.924,0.042,-66.734,-19.066,-0.005,-13.12,0.0,1.0,0.0,-0.001,-0.108,23.144,-0.067,-0.028,6.001,235.469,359.745,359.991,9.853,,7.58
109.541,0.042,-66.998,-19.165,-0.005,-13.187,0.0,1.0,0.0,0.0,-0.109,23.263,0.024,-0.022,5.972,235.47,359.744,-0.001,10.259,,7.6
109.155,0.042,-67.263,-19.263,-0.005,-13.254,0.0,1.0,0.0,0.001,-0.11,23.382,0.047,-0.02,5.948,235.469,359.743,0.01,10.672,,7.62
108.768,0.042,-67.53,-19.361,-0.005,-13.322,0.0,1.0,0.0,0.0,-0.111,23.501,-0.044,-0.024,5.926,235.469,359.741,-0.004,11.091,,7.64
108.379,0.042,-67.797,-19.458,-0.005,-13.389,0.0,1.0,0.0,-0.001,-0.112,23.619,-0.02,-0.025,5.9,235.469,359.74,359.994,11.516,,7.66
107.988,0.042,-68.066,-19.555,-0.005,-13.455,0.0,1.0,0.0,0.0,-0.113,23.736,0.051,-0.032,5.872,235.469,359.739,0.007,11.947,,7.68
107.595,0.042,-68.337,-19.651,-0.005,-13.521,0.0,1.0,0.0,0.0,-0.114,23.853,-0.019,-0.034,5.845,235.469,359.738,0.002,12.383,,7.7
107.2,0.042,-68.609,-19.746,-0.005,-13.588,0.0,1.0,0.0,-0.001,-0.115,23.969,-0.044,-0.035,5.816,235.469,359.737,359.993,12.825,,7.72
106.803,0.042,-68.882,-19.842,-0.005,-13.653,0.0,1.0,0.0,0.0,-0.116,24.085,0.033,-0.025,5.785,235.469,359.736,0.002,13.271,,7.74
106.404,0.042,-69.156,-19.937,-0.005,-13.718,0.022,1.0,0.0,0.0,-0.117,24.2,0.02,-0.023,5.757,235.469,359.734,0.006,13.722,,7.76
106.004,0.041,-69.432,-20.031,-0.005,-13.783,0.022,1.0,0.0,0.0,-0.118,24.315,-0.041,-0.017,5.729,235.469,359.733,-0.006,14.177,,7.78
105.601,0.041,-69.709,-20.125,-0.005,-13.848,0.216,1.0,0.0,0.0,-0.119,24.429,0.01,-0.025,5.701,235.469,359.732,-0.003,14.636,,7.8
105.197,0.041,-69.987,-20.22,-0.005,-13.91,0.216,1.0,0.0,0.002,-0.12,24.542,0.149,-0.023,5.671,235.471,359.731,0.012,15.099,,7.82
104.791,0.041,-70.266,-20.316,-0.005,-13.969,0.216,1.0,0.0,0.004,-0.121,24.655,0.253,-0.031,5.64,235.479,359.729,0.011,15.566,,7.84
104.382,0.041,-70.547,-20.411,-0.005,-14.029,0.216,1.0,0.0,0.002,-0.122,24.767,0.216,-0.029,5.61,235.492,359.728,0.0,16.037,,7.86
103.972,0.041,-70.829,-20.506,-0.005,-14.088,0.245,1.0,0.0,0.002,-0.123,24.879,0.305,-0.027,5.578,235.506,359.727,0.006,16.511,,7.88
103.56,0.041,-71.111,-20.613,-0.005,-14.129,0.245,1.0,0.0,0.014,-0.124,24.99,1.322,-0.03,5.542,235.541,359.727,0.063,16.989,,7.9
103.146,0.041,-71.395,-20.734,-0.005,-14.146,0.245,1.0,0.0,0.031,-0.125,25.099,2.702,-0.03,5.487,235.625,359.726,0.113,17.469,,7.92
102.729,0.041,-71.679,-20.851,-0.004,-14.166,0.245,1.0,0.0,0.027,-0.126,25.208,2.459,0.005,5.432,235.747,359.724,0.046,17.953,,7.94
102.311,0.04,-71.964,-20.973,-0.004,-14.179,0.245,1.0,0.0,0.023,-0.127,25.315,2.901,-0.026,5.376,235.888,359.723,0.047,18.44,,7.96
101.889,0.04,-72.248,-21.102,-0.004,-14.178,0.235,1.0,0.0,0.03,-0.128,25.422,3.661,-0.048,5.343,236.037,359.722,0.131,18.929,,7.98
101.465,0.04,-72.533,-21.228,-0.005,-14.181,0.235,1.0,0.0,0.031,-0.129,25.529,3.364,-0.045,5.331,236.187,359.721,0.094,19.422,,8.0
101.039,0.04,-72.818,-21.352,-0.004,-14.186,0.235,1.0,0.0,0.028,-0.129,25.634,3.215,0.012,5.277,236.338,359.719,0.035,19.917,,8.02
100.61,0.04,-73.102,-21.48,-0.005,-14.182,0.235,1.0,0.0,0.036,-0.131,25.739,3.722,-0.069,5.252,236.486,359.718,0.101,20.414,,8.04
100.179,0.04,-73.387,-21.608,-0.005,-14.18,0.235,1.0,0.0,0.042,-0.133,25.845,3.598,-0.065,5.267,236.633,359.717,0.121,20.914,,8.06
99.745,0.04,-73.672,-21.729,-0.005,-14.185,0.235,1.0,0.0,0.038,-0.133,25.949,3.105,0.001,5.222,236.78,359.716,0.045,21.417,,8.08
99.308,0.04,-73.957,-21.854,-0.005,-14.184,0.235,1.0,0.0,0.038,-0.135,26.053,3.425,-0.038,5.186,236.929,359.715,0.065,21.921,,8.1
98.869,0.04,-74.241,-21.981,-0.005,-14.179,0.235,1.0,0.0,0.045,-0.136,26.157,3.695,-0.053,5.194,237.078,359.714,0.128,22.429,,8.12
