Time,PosX,PosY,PosZ,VelX,VelY,VelZ,Steering,Throttle,Brake,LocalVelX,LocalVelY,LocalVelZ,AccLat,AccLong,AccVert,Yaw,Pitch,Roll,DistFromIdeal,Curva,LapTime
619.72,-18.527,0.027,-23.428,36.064,0.020,0.300,0.000,1.000,0.000,0.113,-0.214,36.064,9.762,2.572,-0.250,89.337,359.631,1.202,5.055,,0.02
619.74,-17.805,0.027,-23.410,36.066,-0.012,0.416,0.167,1.000,0.000,-0.003,-0.242,36.067,-5.796,-1.656,0.142,89.346,359.636,359.800,5.200,,0.04
619.76,-17.084,0.027,-23.394,36.067,-0.007,0.507,0.167,1.000,0.000,-0.122,-0.237,36.070,-4.531,0.180,0.124,89.396,359.639,358.949,5.436,,0.06
619.78,-16.363,0.027,-23.401,36.057,0.026,0.284,0.167,1.000,0.000,0.107,-0.212,36.058,11.168,1.456,-0.590,89.374,359.625,0.916,5.734,,0.08
619.80,-15.641,0.027,-23.392,36.074,-0.032,0.324,0.167,1.000,0.000,0.075,-0.255,36.074,-2.045,-2.859,0.827,89.363,359.647,0.432,6.116,,0.10
619.82,-14.920,0.027,-23.371,36.068,0.023,0.515,0.167,1.000,0.000,-0.130,-0.213,36.071,-9.622,2.509,-0.165,89.395,359.631,358.767,6.564,,0.12
619.84,-14.199,0.027,-23.373,36.072,-0.005,0.376,0.254,1.000,0.000,0.006,-0.235,36.073,6.958,-1.413,0.086,89.390,359.635,0.314,7.042,,0.14
619.86,-13.477,0.027,-23.373,36.077,-0.012,0.258,0.254,1.000,0.000,0.130,-0.240,36.077,5.891,-0.492,0.198,89.377,359.643,1.104,7.560,,0.16
619.88,-12.756,0.027,-23.351,36.065,0.030,0.430,0.187,1.000,0.000,-0.105,-0.207,36.066,-8.620,2.000,-0.526,89.490,359.627,359.108,8.122,,0.18
619.90,-12.034,0.027,-23.347,36.081,-0.031,0.315,0.187,1.000,0.000,-0.075,-0.253,36.082,5.784,-3.016,0.773,89.621,359.647,359.695,8.698,,0.20
619.92,-11.313,0.027,-23.357,36.078,0.014,0.017,0.000,1.000,0.000,0.146,-0.221,36.077,14.947,1.860,-0.209,89.734,359.633,1.434,9.287,,0.22
619.94,-10.591,0.027,-23.343,36.083,-0.005,0.069,0.000,1.000,0.000,-0.001,-0.236,36.082,-2.594,-0.978,0.227,89.895,359.633,359.739,9.905,,0.24
619.96,-9.869,0.027,-23.335,36.082,-0.010,0.079,0.000,1.000,0.000,-0.118,-0.237,36.082,-0.488,-0.252,-0.016,90.070,359.643,358.978,10.533,,0.26
619.98,-9.148,0.027,-23.353,36.062,0.028,-0.231,0.000,1.000,0.000,0.147,-0.207,36.062,15.529,1.589,-0.974,90.127,359.632,1.147,11.162,,0.28
620.00,-8.426,0.027,-23.351,36.084,-0.044,-0.172,0.000,1.000,0.000,0.084,-0.260,36.084,-2.970,-3.579,1.089,90.138,359.659,0.303,11.810,,0.30
620.02,-7.705,0.027,-23.340,36.079,0.015,-0.003,0.000,1.000,0.000,-0.116,-0.213,36.079,-8.532,2.737,-0.252,90.196,359.644,358.666,12.469,,0.32
620.04,-6.983,0.027,-23.356,36.073,0.004,-0.180,0.000,1.000,0.000,0.052,-0.224,36.073,8.868,-0.609,-0.280,90.200,359.640,0.515,13.125,,0.34
620.06,-6.262,0.027,-23.364,36.080,-0.020,-0.242,0.000,1.000,0.000,0.138,-0.242,36.080,3.054,-1.267,0.342,90.158,359.652,0.996,13.790,,0.36
620.08,-5.540,0.027,-23.349,36.070,0.041,0.020,0.000,1.000,0.000,-0.136,-0.197,36.070,-13.179,2.809,-0.515,90.190,359.626,358.774,14.468,,0.38
620.10,-4.819,0.027,-23.356,36.090,-0.035,-0.047,-0.099,1.000,0.000,-0.079,-0.257,36.089,3.386,-3.799,0.977,90.203,359.648,359.752,15.143,,0.40
620.12,-4.097,0.027,-23.371,36.085,0.018,-0.207,-0.099,1.000,0.000,0.118,-0.214,36.085,8.032,2.424,-0.230,90.133,359.636,1.351,15.820,,0.42
620.14,-3.375,0.027,-23.359,36.082,0.008,-0.015,-0.041,1.000,0.000,-0.050,-0.223,36.081,-9.552,-0.594,-0.168,90.108,359.634,359.409,16.509,,0.44
620.16,-2.653,0.027,-23.355,36.091,-0.029,0.058,-0.041,1.000,0.000,-0.127,-0.249,36.090,-3.646,-1.906,0.439,90.116,359.655,358.985,17.198,,0.46
620.18,-1.932,0.027,-23.374,36.079,0.039,-0.168,0.000,1.000,0.000,0.141,-0.197,36.078,11.370,3.185,-0.588,90.036,359.630,1.205,17.883,,0.48
620.20,-1.210,0.027,-23.369,36.096,-0.037,-0.065,0.000,1.000,0.000,0.084,-0.256,36.095,-5.166,-3.780,0.845,89.968,359.652,0.191,18.578,,0.50
620.22,-0.488,0.027,-23.357,36.091,0.012,0.115,0.000,1.000,0.000,-0.106,-0.217,36.090,-9.035,2.202,-0.247,89.993,359.641,358.631,19.276,,0.52
620.24,0.234,0.027,-23.370,36.087,0.010,-0.049,0.000,1.000,0.000,0.054,-0.221,36.087,8.214,-0.167,-0.175,89.990,359.634,0.578,19.970,,0.54
620.26,0.956,0.027,-23.374,36.096,-0.025,-0.083,0.000,1.000,0.000,0.114,-0.247,36.095,1.664,-1.777,0.409,89.945,359.651,0.939,20.668,,0.56
620.28,1.677,0.027,-23.356,36.083,0.039,0.192,0.000,1.000,0.000,-0.163,-0.200,36.083,-13.839,2.901,-0.592,89.960,359.627,358.708,21.373,,0.58
620.30,2.399,0.027,-23.361,36.105,-0.037,0.120,0.000,1.000,0.000,-0.088,-0.258,36.104,3.634,-3.782,1.062,89.952,359.649,359.819,22.073,,0.60
620.32,3.121,0.027,-23.372,36.099,0.012,-0.034,0.000,1.000,0.000,0.109,-0.217,36.098,7.743,2.252,-0.298,89.872,359.640,1.375,22.774,,0.62
620.34,3.843,0.027,-23.356,36.094,0.011,0.167,0.000,1.000,0.000,-0.069,-0.219,36.094,-10.060,-0.172,-0.226,89.849,359.636,359.334,23.482,,0.64
620.36,4.565,0.027,-23.350,36.105,-0.033,0.215,0.000,1.000,0.000,-0.132,-0.251,36.104,-2.349,-2.237,0.533,89.875,359.657,359.048,24.188,,0.66
620.38,5.287,0.027,-23.366,36.093,0.041,-0.055,0.000,1.000,0.000,0.150,-0.195,36.092,13.599,3.376,-0.628,89.843,359.630,1.352,24.892,,0.68
620.40,6.009,0.027,-23.357,36.108,-0.038,0.032,0.000,1.000,0.000,0.069,-0.257,36.107,-4.406,-3.944,0.777,89.837,359.653,0.143,25.600,,0.70
620.42,6.731,0.027,-23.344,36.100,0.011,0.172,0.000,1.000,0.000,-0.113,-0.215,36.099,-7.050,2.264,-0.406,89.913,359.646,358.619,26.311,,0.72
620.44,7.453,0.027,-23.358,36.094,0.016,-0.045,0.000,1.000,0.000,0.081,-0.214,36.093,10.869,0.123,-0.289,89.939,359.638,0.731,27.017,,0.74
620.46,8.175,0.027,-23.361,36.105,-0.034,-0.086,0.000,1.000,0.000,0.134,-0.251,36.104,1.989,-2.514,0.541,89.917,359.659,0.921,27.726,,0.76
620.48,8.897,0.027,-23.342,36.093,0.044,0.189,0.000,1.000,0.000,-0.152,-0.193,36.093,-13.800,3.566,-0.581,89.950,359.630,358.597,28.439,,0.78
620.50,9.619,0.027,-23.349,36.108,-0.035,0.090,0.000,1.000,0.000,-0.058,-0.255,36.107,4.957,-3.983,0.738,89.951,359.652,359.916,29.149,,0.80
620.52,10.341,0.027,-23.360,36.101,0.007,-0.045,0.000,1.000,0.000,0.121,-0.218,36.101,6.799,1.980,-0.342,89.871,359.647,1.393,29.858,,0.82
620.54,11.063,0.027,-23.342,36.096,0.019,0.189,0.000,1.000,0.000,-0.090,-0.211,36.095,-11.708,0.411,-0.259,89.848,359.637,359.186,30.572,,0.84
620.56,11.785,0.026,-23.337,36.107,-0.040,0.223,0.000,1.000,0.000,-0.140,-0.255,36.107,-1.668,-2.971,0.573,89.875,359.663,359.107,31.285,,0.86
620.58,12.507,0.027,-23.353,36.097,0.045,-0.056,0.000,1.000,0.000,0.145,-0.191,36.096,14.066,3.867,-0.538,89.851,359.632,1.472,31.996,,0.88
620.60,13.229,0.027,-23.343,36.109,-0.035,0.053,-0.448,1.000,0.000,0.039,-0.254,36.108,-5.475,-3.984,0.587,89.854,359.653,0.023,32.710,,0.90
620.62,13.952,0.027,-23.330,36.103,0.004,0.178,-0.448,1.000,0.000,-0.127,-0.219,36.102,-6.273,1.796,-0.278,89.929,359.651,358.592,33.425,,0.92
620.64,14.674,0.027,-23.346,36.097,0.024,-0.078,-0.448,1.000,0.000,0.112,-0.206,36.096,12.820,0.803,-0.315,89.941,359.637,0.912,34.137,,0.94
620.66,15.396,0.026,-23.347,36.111,-0.045,-0.088,-0.448,1.000,0.000,0.145,-0.257,36.110,0.430,-3.433,0.723,89.904,359.666,0.819,34.851,,0.96
620.68,16.118,0.027,-23.328,36.100,0.045,0.198,-0.496,1.000,0.000,-0.141,-0.190,36.100,-14.423,4.081,-0.527,89.917,359.634,358.455,35.568,,0.98
620.70,16.840,0.027,-23.335,36.107,-0.030,0.153,-0.496,1.000,0.000,-0.041,-0.247,36.106,2.260,-3.713,0.315,89.822,359.655,359.904,36.282,,1.00
620.72,17.562,0.027,-23.342,36.102,0.016,0.172,-0.487,1.000,0.000,0.111,-0.207,36.102,-0.908,2.301,-0.192,89.545,359.649,1.126,36.996,,1.02
620.74,18.284,0.027,-23.317,36.082,0.026,0.610,-0.487,1.000,0.000,-0.126,-0.206,36.087,-21.892,0.061,-0.715,89.240,359.636,358.797,37.714,,1.04
620.76,19.006,0.026,-23.308,36.105,-0.054,0.734,0.000,1.000,0.000,-0.103,-0.269,36.111,-6.163,-4.092,1.220,89.003,359.661,359.231,38.430,,1.06
620.78,19.728,0.027,-23.309,36.100,0.049,0.688,0.000,1.000,0.000,0.115,-0.190,36.105,2.400,5.072,-0.289,88.719,359.625,1.201,39.146,,1.08
620.80,20.449,0.027,-23.279,36.075,-0.006,1.059,0.000,1.000,0.000,-0.066,-0.235,36.089,-18.508,-2.933,-0.758,88.428,359.639,359.428,39.865,,1.10
620.82,21.170,0.027,-23.248,36.064,-0.031,1.394,0.000,1.000,0.000,-0.199,-0.250,36.090,-16.731,-1.682,0.027,88.113,359.660,358.466,40.584,,1.12
620.84,21.893,0.027,-23.241,36.070,0.056,1.281,0.000,1.000,0.000,0.095,-0.185,36.092,5.711,4.236,0.099,87.809,359.621,1.070,41.301,,1.14
620.86,22.613,0.027,-23.212,36.060,-0.052,1.362,0.000,1.000,0.000,0.078,-0.262,36.084,-4.099,-5.324,-0.390,87.709,359.668,0.664,42.020,,1.16
620.88,23.334,0.027,-23.165,36.037,0.033,1.627,0.000,1.000,0.000,-0.223,-0.194,36.073,-13.406,3.843,-0.578,87.777,359.649,358.422,42.740,,1.18
620.90,24.055,0.027,-23.148,36.048,-0.028,1.443,0.000,1.000,0.000,-0.081,-0.239,36.076,9.186,-3.085,0.171,87.834,359.664,0.328,43.458,,1.20
620.92,24.776,0.026,-23.128,36.059,-0.028,1.310,0.000,1.000,0.000,0.055,-0.237,36.082,6.696,-0.143,0.318,87.823,359.670,1.420,44.176,,1.22
620.94,25.497,0.027,-23.081,36.044,0.039,1.554,0.000,1.000,0.000,-0.192,-0.196,36.076,-12.333,3.067,-0.295,87.842,359.633,358.845,44.897,,1.24
620.96,26.218,0.026,-23.056,36.069,-0.052,1.460,0.000,1.000,0.000,-0.109,-0.267,36.097,4.799,-4.492,1.059,87.859,359.659,359.481,45.616,,1.26
620.98,26.940,0.027,-23.045,36.073,0.037,1.214,0.000,1.000,0.000,0.146,-0.198,36.092,12.449,4.081,-0.262,87.833,359.633,1.576,46.334,,1.28
621.00,27.661,0.026,-23.004,36.068,0.000,1.388,0.000,1.000,0.000,-0.022,-0.226,36.094,-8.734,-1.867,0.100,87.832,359.640,359.585,47.054,,1.30
621.02,28.382,0.026,-22.969,36.073,-0.013,1.470,0.000,1.000,0.000,-0.127,-0.232,36.102,-4.028,-0.779,0.372,87.877,359.658,358.742,47.775,,1.32
621.04,29.105,0.027,-22.962,36.073,0.050,1.177,-0.206,1.000,0.000,0.173,-0.185,36.092,14.700,2.850,-0.504,87.851,359.633,1.282,48.493,,1.34
621.06,29.826,0.026,-22.931,36.094,-0.050,1.260,-0.206,1.000,0.000,0.103,-0.261,36.115,-4.155,-5.008,1.165,87.835,359.667,0.389,49.213,,1.36
621.08,30.547,0.027,-22.890,36.082,0.024,1.457,-0.632,1.000,0.000,-0.126,-0.202,36.111,-9.951,3.456,-0.199,87.897,359.647,358.473,49.934,,1.38
621.10,31.270,0.027,-22.876,36.084,0.001,1.300,-0.632,1.000,0.000,0.031,-0.223,36.107,7.834,-1.230,-0.196,87.885,359.645,0.453,50.653,,1.40
621.12,31.991,0.027,-22.855,36.092,-0.020,1.281,-0.632,1.000,0.000,0.117,-0.238,36.113,0.962,-1.033,0.324,87.775,359.657,1.061,51.373,,1.42
621.14,32.712,0.027,-22.808,36.062,0.042,1.632,-0.632,1.000,0.000,-0.167,-0.196,36.098,-17.698,2.650,-0.764,87.681,359.629,358.594,52.095,,1.44
621.16,33.434,0.026,-22.784,36.090,-0.049,1.608,-0.564,1.000,0.000,-0.061,-0.267,36.125,1.271,-4.564,1.351,87.547,359.656,359.659,52.815,,1.46
621.18,34.157,0.027,-22.766,36.091,0.025,1.530,-0.206,1.000,0.000,0.150,-0.207,36.123,4.027,3.605,-0.107,87.328,359.639,1.334,53.535,,1.48
621.20,34.877,0.027,-22.713,36.056,0.011,1.985,0.000,1.000,0.000,-0.113,-0.221,36.110,-22.822,-1.125,-0.596,87.035,359.636,358.889,54.257,,1.50
621.22,35.598,0.026,-22.670,36.044,-0.068,2.246,0.000,1.000,0.000,-0.159,-0.273,36.113,-12.982,-4.250,0.139,86.696,359.681,358.693,54.978,,1.52
621.24,36.320,0.027,-22.646,36.035,0.078,2.174,0.000,1.000,0.000,0.145,-0.157,36.100,3.773,7.201,-0.619,86.313,359.634,1.326,55.698,,1.54
621.26,37.039,0.027,-22.591,35.991,-0.031,2.450,0.000,1.000,0.000,0.048,-0.236,36.073,-13.953,-5.433,-1.307,86.029,359.675,-0.002,56.419,,1.56
621.28,37.758,0.027,-22.529,35.974,0.004,2.655,0.000,1.000,0.000,-0.109,-0.204,36.071,-10.302,1.519,-0.111,85.961,359.673,358.534,57.140,,1.58
621.30,38.479,0.027,-22.494,35.988,0.026,2.459,0.000,1.000,0.000,0.057,-0.199,36.072,9.807,0.951,0.045,85.995,359.644,0.823,57.861,,1.60
621.32,39.199,0.026,-22.444,36.005,-0.038,2.486,0.000,1.000,0.000,0.023,-0.257,36.089,-1.326,-3.191,0.885,86.007,359.653,0.796,58.582,,1.62
621.34,39.918,0.027,-22.376,35.980,0.041,2.722,0.000,1.000,0.000,-0.217,-0.206,36.082,-11.936,3.683,-0.355,86.026,359.616,358.638,59.304,,1.64
621.36,40.639,0.027,-22.334,36.014,-0.023,2.574,0.000,1.000,0.000,-0.060,-0.257,36.105,7.488,-3.244,1.119,86.006,359.629,0.104,60.025,,1.66
621.38,41.360,0.027,-22.294,36.027,-0.002,2.446,0.000,1.000,0.000,0.121,-0.235,36.109,6.462,0.887,0.217,85.915,359.636,1.295,60.746,,1.68
621.40,42.079,0.027,-22.226,36.008,0.028,2.678,0.000,1.000,0.000,-0.091,-0.209,36.107,-11.668,1.332,-0.085,85.896,359.626,359.075,61.468,,1.70
621.42,42.800,0.027,-22.174,36.035,-0.041,2.672,0.000,1.000,0.000,-0.106,-0.259,36.132,0.432,-3.426,1.261,85.932,359.656,359.318,62.190,,1.72
621.44,43.522,0.027,-22.139,36.048,0.036,2.427,0.000,1.000,0.000,0.131,-0.200,36.128,12.375,3.538,-0.200,85.933,359.631,1.430,62.912,,1.74
621.46,44.242,0.027,-22.077,36.048,-0.021,2.562,0.000,1.000,0.000,-0.012,-0.245,36.138,-6.718,-2.868,0.487,85.955,359.643,359.827,63.634,,1.76
621.48,44.962,0.027,-22.017,36.040,-0.008,2.658,0.000,1.000,0.000,-0.146,-0.232,36.137,-4.848,0.521,-0.044,86.021,359.650,358.745,64.357,,1.78
621.50,45.684,0.027,-21.983,36.044,0.030,2.389,0.000,1.000,0.000,0.119,-0.203,36.122,13.477,1.653,-0.772,86.013,359.634,1.047,65.078,,1.80
621.52,46.405,0.026,-21.932,36.059,-0.046,2.433,0.000,1.000,0.000,0.090,-0.259,36.140,-2.203,-3.761,0.894,85.993,359.663,0.539,65.800,,1.82
621.54,47.125,0.027,-21.866,36.037,0.031,2.651,0.000,1.000,0.000,-0.133,-0.200,36.133,-11.047,3.551,-0.328,86.011,359.639,358.571,66.523,,1.84
621.56,47.847,0.027,-21.827,36.050,-0.007,2.497,0.000,1.000,0.000,0.019,-0.233,36.136,7.738,-1.942,0.143,86.006,359.641,0.321,67.245,,1.86
621.58,48.568,0.027,-21.785,36.059,-0.011,2.411,0.000,1.000,0.000,0.132,-0.235,36.138,4.329,-0.289,0.121,85.958,359.649,1.185,67.967,,1.88
621.60,49.288,0.027,-21.717,36.026,0.039,2.675,0.000,1.000,0.000,-0.140,-0.199,36.124,-13.353,2.247,-0.700,85.981,359.628,358.865,68.690,,1.90
621.62,50.009,0.027,-21.669,36.051,-0.043,2.607,0.000,1.000,0.000,-0.074,-0.260,36.144,3.515,-4.087,0.999,85.985,359.657,359.598,69.412,,1.92
621.64,50.731,0.027,-21.633,36.061,0.024,2.413,0.000,1.000,0.000,0.151,-0.208,36.140,9.808,3.098,-0.211,85.924,359.639,1.406,70.134,,1.94
621.66,51.451,0.027,-21.569,36.047,-0.001,2.597,0.000,1.000,0.000,-0.016,-0.228,36.140,-9.213,-1.295,-0.031,85.908,359.640,359.523,70.857,,1.96
621.68,52.172,0.027,-21.511,36.047,-0.023,2.679,0.000,1.000,0.000,-0.119,-0.243,36.146,-4.086,-1.178,0.307,85.945,359.654,358.889,71.579,,1.98
621.70,52.894,0.027,-21.478,36.054,0.041,2.420,0.000,1.000,0.000,0.147,-0.197,36.134,12.986,2.909,-0.575,85.919,359.628,1.218,72.301,,2.00
621.72,53.615,0.026,-21.422,36.070,-0.042,2.494,0.000,1.000,0.000,0.083,-0.262,36.156,-3.650,-4.131,1.067,85.911,359.653,0.324,73.024,,2.02
621.74,54.335,0.027,-21.357,36.054,0.021,2.670,0.000,1.000,0.000,-0.133,-0.212,36.151,-8.911,2.920,-0.206,85.983,359.637,358.592,73.747,,2.04
621.76,55.058,0.027,-21.320,36.062,0.005,2.479,0.000,1.000,0.000,0.036,-0.225,36.147,9.587,-0.892,-0.228,86.008,359.636,0.551,74.469,,2.06
621.78,55.779,0.027,-21.275,36.074,-0.026,2.409,0.000,1.000,0.000,0.121,-0.246,36.154,3.466,-1.612,0.338,85.980,359.655,1.063,75.192,,2.08
621.80,56.499,0.027,-21.207,36.042,0.042,2.671,0.000,1.000,0.000,-0.155,-0.195,36.141,-13.259,3.132,-0.653,86.013,359.630,358.725,75.915,,2.10
621.82,57.221,0.027,-21.161,36.067,-0.041,2.596,0.000,1.000,0.000,-0.088,-0.259,36.160,3.875,-4.164,0.949,86.025,359.655,359.735,76.637,,2.12
621.84,57.943,0.027,-21.124,36.073,0.018,2.429,0.000,1.000,0.000,0.118,-0.212,36.154,8.403,2.733,-0.285,85.952,359.641,1.413,77.360,,2.14
621.86,58.663,0.027,-21.059,36.053,0.008,2.625,0.225,1.000,0.000,-0.053,-0.221,36.147,-9.848,-0.570,-0.321,85.923,359.637,359.393,78.083,,2.16
621.88,59.384,0.027,-21.002,36.057,-0.029,2.685,0.225,1.000,0.000,-0.124,-0.248,36.156,-2.952,-1.915,0.404,85.944,359.656,358.973,78.806,,2.18
621.90,60.107,0.027,-20.969,36.062,0.043,2.416,0.003,1.000,0.000,0.158,-0.195,36.142,13.544,3.307,-0.673,85.909,359.629,1.322,79.528,,2.20
621.92,60.827,0.026,-20.913,36.076,-0.040,2.465,0.003,1.000,0.000,0.097,-0.259,36.159,-2.433,-4.183,0.852,85.934,359.654,0.293,80.251,,2.22
621.94,61.548,0.027,-20.850,36.061,0.021,2.580,0.003,1.000,0.000,-0.107,-0.208,36.153,-5.838,2.963,-0.331,86.086,359.641,358.670,80.974,,2.24
621.96,62.270,0.027,-20.816,36.073,0.010,2.288,0.003,1.000,0.000,0.070,-0.221,36.145,14.588,-0.791,-0.344,86.254,359.636,0.781,81.696,,2.26
621.98,62.992,0.026,-20.773,36.095,-0.042,2.155,0.003,1.000,0.000,0.112,-0.259,36.158,6.640,-2.705,0.653,86.397,359.659,1.092,82.419,,2.28
622.00,63.713,0.027,-20.711,36.075,0.050,2.302,0.000,1.000,0.000,-0.135,-0.190,36.148,-7.496,4.462,-0.518,86.568,359.624,358.806,83.142,,2.30
622.02,64.435,0.027,-20.674,36.089,-0.030,2.148,0.000,1.000,0.000,-0.041,-0.251,36.152,7.784,-4.009,0.219,86.661,359.650,359.858,83.864,,2.32
622.04,65.157,0.027,-20.644,36.095,0.013,1.981,0.000,1.000,0.000,0.148,-0.216,36.148,8.373,1.948,-0.211,86.617,359.644,1.312,84.586,,2.34
622.06,65.878,0.027,-20.588,36.081,0.015,2.181,0.000,1.000,0.000,-0.025,-0.216,36.146,-10.014,0.020,-0.104,86.584,359.634,359.319,85.309,,2.36
622.08,66.600,0.027,-20.542,36.091,-0.030,2.236,0.000,1.000,0.000,-0.082,-0.252,36.160,-2.704,-2.303,0.684,86.591,359.651,359.087,86.032,,2.38
622.10,67.323,0.027,-20.516,36.098,0.040,2.002,0.000,1.000,0.000,0.164,-0.203,36.152,11.781,3.235,-0.364,86.558,359.621,1.272,86.754,,2.40
622.12,68.045,0.027,-20.466,36.111,-0.034,2.116,0.000,1.000,0.000,0.050,-0.261,36.172,-5.659,-3.677,0.989,86.567,359.640,0.082,87.477,,2.42
622.14,68.766,0.027,-20.412,36.098,0.004,2.255,0.000,1.000,0.000,-0.139,-0.228,36.167,-7.017,1.729,-0.250,86.653,359.638,358.699,88.200,,2.44
622.16,69.489,0.027,-20.384,36.105,0.015,2.036,0.000,1.000,0.000,0.058,-0.218,36.161,10.955,0.378,-0.289,86.676,359.632,0.759,88.923,,2.46
622.18,70.211,0.026,-20.345,36.118,-0.035,1.993,0.000,1.000,0.000,0.121,-0.254,36.172,2.146,-2.539,0.545,86.644,359.657,0.859,89.646,,2.48
622.20,70.932,0.027,-20.286,36.094,0.041,2.246,0.119,1.000,0.000,-0.139,-0.196,36.163,-12.774,3.502,-0.446,86.666,359.630,358.638,90.369,,2.50
622.22,71.655,0.027,-20.251,36.113,-0.030,2.141,0.119,1.000,0.000,-0.032,-0.253,36.176,5.308,-3.548,0.636,86.658,359.648,359.966,91.092,,2.52
622.24,72.378,0.027,-20.220,36.114,0.005,2.017,0.119,1.000,0.000,0.136,-0.223,36.169,6.212,1.626,-0.338,86.580,359.645,1.319,91.815,,2.54
622.26,73.096,0.026,-20.166,35.996,-0.073,1.810,0.119,1.000,0.000,0.121,-0.245,36.041,10.127,-3.658,-6.455,86.937,359.723,358.916,92.535,,2.56
622.28,73.809,0.023,-20.137,35.668,-0.193,1.015,0.119,1.000,0.000,0.483,-0.282,35.678,39.128,-5.030,-18.090,87.605,359.839,358.604,93.247,,2.58
622.30,74.521,0.025,-20.133,35.513,0.302,0.335,0.129,1.000,0.000,0.809,-0.031,35.506,33.599,25.032,-8.600,88.154,359.456,359.695,93.958,,2.60
622.32,75.231,0.029,-20.126,35.433,0.245,0.269,0.129,1.000,0.000,0.663,-0.207,35.428,3.211,-2.806,-4.098,88.494,359.267,359.947,94.665,,2.62
622.34,75.938,0.030,-20.113,35.382,-0.010,0.367,0.129,1.000,0.000,0.378,-0.368,35.380,-4.827,-12.767,-2.580,88.799,359.416,359.513,95.370,,2.64
622.36,76.647,0.031,-20.104,35.496,0.014,0.294,0.051,1.000,0.000,0.252,-0.308,35.495,3.735,1.203,5.634,89.123,359.476,359.496,96.078,,2.66
622.38,77.360,0.031,-20.103,35.638,0.011,0.141,0.051,1.000,0.000,0.220,-0.320,35.636,7.710,-0.261,7.044,89.418,359.469,0.152,96.788,,2.68
622.40,78.076,0.030,-20.098,35.773,-0.051,0.178,0.051,1.000,0.000,0.066,-0.374,35.771,-1.844,-3.151,6.716,89.607,359.483,0.144,9.741,"Curva 1: Strettissima, frenare.",2.70
622.42,78.792,0.028,-20.091,35.838,-0.101,0.179,0.051,1.000,0.000,-0.004,-0.405,35.837,-0.020,-2.533,3.258,89.723,359.515,359.775,9.792,"Curva 1: Strettissima, frenare.",2.72
622.44,79.509,0.027,-20.090,35.857,-0.074,0.047,0.000,1.000,0.000,0.086,-0.354,35.856,6.600,1.393,0.934,89.789,359.552,359.806,9.890,"Curva 1: Strettissima, frenare.",2.74
622.46,80.226,0.027,-20.095,35.888,-0.051,-0.015,0.000,1.000,0.000,0.136,-0.303,35.887,3.148,1.084,1.542,89.802,359.599,0.556,10.032,"Curva 1: Strettissima, frenare.",2.76
622.48,80.944,0.027,-20.088,35.904,-0.027,0.079,0.000,1.000,0.000,0.030,-0.253,35.904,-4.734,1.205,0.832,89.827,359.639,359.788,10.234,"Curva 1: Strettissima, frenare.",2.78
622.50,81.662,0.027,-20.083,35.905,0.001,0.145,0.000,1.000,0.000,-0.055,-0.212,35.905,-3.309,1.357,0.052,89.859,359.661,359.492,10.479,"Curva 1: Strettissima, frenare.",2.80
622.52,82.380,0.027,-20.089,35.893,0.036,0.034,0.000,1.000,0.000,0.071,-0.180,35.892,5.556,1.690,-0.630,89.829,359.656,0.534,10.757,"Curva 1: Strettissima, frenare.",2.82
622.54,83.098,0.028,-20.085,35.885,0.028,0.076,0.477,0.755,0.000,0.043,-0.192,35.884,-2.084,-0.396,-0.380,89.809,359.649,0.130,11.083,"Curva 1: Strettissima, frenare.",2.84
622.56,83.815,0.028,-20.076,35.872,0.034,0.198,0.477,0.755,0.000,-0.082,-0.198,35.872,-6.089,0.261,-0.606,89.819,359.631,359.305,11.449,"Curva 1: Strettissima, frenare.",2.86
622.58,84.532,0.029,-20.080,35.846,0.017,0.105,0.477,0.755,0.000,0.017,-0.217,35.845,4.623,-0.874,-1.365,89.803,359.625,0.297,11.836,"Curva 1: Strettissima, frenare.",2.88
622.60,85.248,0.029,-20.081,35.804,-0.008,0.059,0.477,0.755,0.000,0.079,-0.233,35.803,2.292,-1.283,-2.086,89.776,359.641,0.531,12.255,"Curva 1: Strettissima, frenare.",2.90
622.62,85.963,0.029,-20.069,35.743,0.000,0.200,0.506,0.657,0.000,-0.079,-0.216,35.743,-7.068,0.331,-3.032,89.810,359.656,359.325,12.709,"Curva 1: Strettissima, frenare.",2.92
622.64,86.676,0.029,-20.071,35.669,-0.028,0.087,0.506,0.657,0.000,-0.009,-0.221,35.668,5.627,-1.362,-3.716,89.875,359.691,0.047,13.176,"Curva 1: Strettissima, frenare.",2.94
622.66,87.388,0.029,-20.080,35.573,-0.016,-0.183,0.332,0.570,0.000,0.149,-0.195,35.572,13.499,0.370,-4.795,90.048,359.716,1.127,13.657,"Curva 1: Strettissima, frenare.",2.96
622.68,88.097,0.029,-20.073,35.467,0.004,-0.205,0.000,0.482,0.000,-0.028,-0.164,35.467,1.174,1.007,-5.288,90.379,359.728,359.739,14.168,"Curva 1: Strettissima, frenare.",2.98
622.70,88.804,0.029,-20.076,35.339,0.001,-0.355,0.000,0.482,0.000,-0.108,-0.155,35.340,7.578,-0.065,-6.295,90.753,359.749,359.589,14.686,"Curva 1: Strettissima, frenare.",3.00
622.72,89.507,0.029,-20.099,35.191,0.025,-0.769,0.000,0.285,0.000,0.130,-0.131,35.199,20.851,0.778,-7.008,91.036,359.750,1.249,15.204,"Curva 1: Strettissima, frenare.",3.02
622.74,90.208,0.029,-20.105,35.045,-0.003,-0.786,0.000,0.285,0.000,0.018,-0.146,35.054,0.983,-1.356,-7.293,91.255,359.766,-0.001,15.745,"Curva 1: Strettissima, frenare.",3.04
622.76,90.906,0.030,-20.111,34.875,0.015,-0.682,0.000,0.285,0.000,-0.112,-0.122,34.881,-5.023,0.829,-8.613,91.307,359.778,358.837,16.296,"Curva 1: Strettissima, frenare.",3.06
622.78,91.599,0.031,-20.142,34.674,0.024,-0.896,0.177,0.171,0.000,0.179,-0.104,34.685,10.944,0.338,-9.806,91.183,359.793,0.783,16.839,"Curva 1: Strettissima, frenare.",3.08
622.80,92.288,0.030,-20.159,34.475,-0.028,-0.860,0.177,0.171,0.000,0.191,-0.127,34.485,-1.670,-2.568,-10.035,91.109,359.839,0.577,17.398,"Curva 1: Strettissima, frenare.",3.10
622.82,92.974,0.031,-20.158,34.271,0.030,-0.595,0.332,0.097,0.000,-0.083,-0.068,34.276,-13.117,2.624,-10.425,91.135,359.840,358.675,17.972,"Curva 1: Strettissima, frenare.",3.12
622.84,93.654,0.031,-20.181,34.032,-0.008,-0.691,0.448,0.000,0.000,0.011,-0.091,34.039,5.036,-1.895,-11.875,91.144,359.861,0.151,18.537,"Curva 1: Strettissima, frenare.",3.14
622.86,94.329,0.031,-20.205,33.775,0.008,-0.851,0.448,0.000,0.000,0.120,-0.068,33.785,8.288,0.642,-12.657,91.237,359.876,1.336,19.105,"Curva 1: Strettissima, frenare.",3.16
622.88,95.000,0.032,-20.204,33.531,0.043,-0.696,0.448,0.000,0.000,-0.157,-0.035,33.538,-7.415,1.686,-12.391,91.459,359.870,359.221,19.688,"Curva 1: Strettissima, frenare.",3.18
622.90,95.665,0.032,-20.220,33.242,-0.012,-0.788,0.526,0.000,0.000,-0.147,-0.068,33.251,5.013,-2.707,-14.310,91.612,359.908,359.457,20.263,"Curva 1: Strettissima, frenare.",3.20
622.92,96.324,0.033,-20.254,32.978,0.044,-1.132,0.526,0.000,0.000,0.130,-0.018,32.997,17.666,2.394,-12.681,91.740,359.898,1.528,20.830,"Curva 1: Strettissima, frenare.",3.22
622.94,96.979,0.033,-20.267,32.711,-0.003,-1.198,0.729,0.000,0.000,0.035,-0.055,32.733,3.742,-2.351,-13.236,92.035,359.909,0.163,21.408,"Curva 1: Strettissima, frenare.",3.24
622.96,97.627,0.034,-20.280,32.402,0.039,-1.206,0.729,0.000,0.000,-0.119,-0.010,32.424,1.000,2.148,-15.424,92.341,359.918,358.871,21.984,"Curva 1: Strettissima, frenare.",3.26
622.98,98.269,0.035,-20.325,32.116,0.034,-1.626,1.000,0.000,0.000,0.150,-0.017,32.157,21.624,-0.695,-13.302,92.630,359.915,1.146,22.545,"Curva 1: Strettissima, frenare.",3.28
623.00,98.905,0.034,-20.356,31.813,-0.049,-1.814,1.000,0.000,0.000,0.122,-0.079,31.865,10.118,-4.311,-14.614,93.041,359.951,0.980,23.111,"Curva 1: Strettissima, frenare.",3.30
623.02,99.537,0.035,-20.377,31.541,0.067,-1.883,1.000,0.000,0.000,-0.099,0.025,31.597,4.185,5.880,-13.348,93.594,359.927,359.101,23.680,"Curva 1: Strettissima, frenare.",3.32
623.04,100.162,0.035,-20.426,31.250,0.010,-2.247,1.000,0.000,0.000,0.004,-0.029,31.331,19.217,-2.942,-13.217,94.105,359.929,0.377,24.236,"Curva 1: Strettissima, frenare.",3.34
623.06,100.780,0.035,-20.482,30.922,0.002,-2.657,1.000,0.000,0.000,0.106,-0.036,31.035,21.763,-0.962,-14.697,94.715,359.934,1.592,24.786,"Curva 1: Strettissima, frenare.",3.36
623.08,101.395,0.036,-20.519,30.649,0.059,-2.813,1.000,0.000,0.000,-0.124,0.012,30.778,9.026,2.904,-12.806,95.475,359.913,359.737,25.342,"Curva 1: Strettissima, frenare.",3.38
623.10,102.002,0.037,-20.575,30.327,0.026,-3.101,1.000,0.000,0.000,-0.172,-0.010,30.485,16.083,-1.557,-14.451,96.163,359.935,359.633,25.888,"Curva 1: Strettissima, frenare.",3.40
623.12,102.601,0.038,-20.653,30.007,0.030,-3.618,1.000,0.000,0.000,0.010,-0.007,30.224,27.544,-0.543,-12.828,96.856,359.931,1.568,26.422,"Curva 1: Strettissima, frenare.",3.42
623.14,103.198,0.037,-20.715,29.758,-0.024,-3.781,1.000,0.000,0.000,-0.172,-0.058,29.997,9.718,-2.733,-11.244,97.569,359.933,0.268,26.962,"Curva 1: Strettissima, frenare.",3.44
623.16,103.789,0.038,-20.782,29.444,0.024,-3.970,1.000,0.000,0.000,-0.326,-0.011,29.709,11.569,2.548,-14.184,98.307,359.941,359.287,27.497,"Curva 1: Strettissima, frenare.",3.46
623.18,104.370,0.038,-20.877,29.103,0.011,-4.479,1.000,0.000,0.000,-0.135,-0.014,29.446,27.818,-1.222,-12.848,99.012,359.946,1.255,28.016,"Curva 1: Strettissima, frenare.",3.48
623.20,104.947,0.037,-20.964,28.797,-0.051,-4.747,1.000,0.000,0.000,-0.172,-0.063,29.185,15.715,-3.335,-12.860,99.696,359.970,0.899,28.536,"Curva 1: Strettissima, frenare.",3.50
623.22,105.520,0.038,-21.048,28.491,0.071,-4.955,1.000,0.000,0.000,-0.299,0.043,28.917,12.928,6.212,-13.150,100.457,359.951,359.440,29.056,"Curva 1: Strettissima, frenare.",3.52
623.24,106.082,0.039,-21.157,28.142,0.030,-5.404,1.000,0.000,0.000,-0.149,0.008,28.655,25.399,-2.323,-12.772,101.168,359.954,0.643,29.561,"Curva 1: Strettissima, frenare.",3.54
623.26,106.638,0.039,-21.271,27.775,0.001,-5.799,1.000,0.000,0.000,-0.074,-0.014,28.373,23.081,-1.973,-13.873,101.942,359.967,1.337,30.061,"Curva 1: Strettissima, frenare.",3.56
623.28,107.192,0.040,-21.374,27.495,0.071,-5.977,1.000,0.000,0.000,-0.231,0.041,28.136,11.757,3.586,-11.669,102.734,359.940,359.742,30.564,"Curva 1: Strettissima, frenare.",3.58
623.30,107.736,0.041,-21.495,27.175,0.020,-6.279,1.000,0.000,0.000,-0.215,-0.006,27.890,18.379,-2.539,-12.043,103.452,359.947,359.942,31.055,"Curva 1: Strettissima, frenare.",3.60
623.32,108.272,0.041,-21.631,26.832,0.004,-6.683,1.000,0.000,0.000,-0.100,-0.021,27.652,23.803,-1.338,-11.665,104.192,359.944,1.331,31.537,"Curva 1: Strettissima, frenare.",3.62
623.34,108.807,0.040,-21.753,26.565,-0.016,-6.819,1.000,0.000,0.000,-0.261,-0.042,27.425,10.010,-1.032,-11.168,104.942,359.945,0.145,32.023,"Curva 1: Strettissima, frenare.",3.64
623.36,109.334,0.041,-21.884,26.237,0.003,-7.017,1.000,0.000,0.000,-0.336,-0.016,27.157,13.936,1.089,-13.098,105.681,359.964,359.613,32.502,"Curva 1: Strettissima, frenare.",3.66
623.38,109.851,0.041,-22.036,25.871,0.000,-7.410,1.000,0.000,0.000,-0.197,-0.008,26.911,24.041,-0.639,-12.015,106.403,359.976,1.109,32.967,"Curva 1: Strettissima, frenare.",3.68
623.40,110.364,0.040,-22.179,25.568,-0.031,-7.599,1.000,0.000,0.000,-0.260,-0.032,26.672,13.460,-1.666,-11.705,107.110,359.991,0.609,33.434,"Curva 1: Strettissima, frenare.",3.70
623.42,110.873,0.041,-22.323,25.245,0.049,-7.807,1.000,0.000,0.000,-0.310,0.038,26.423,14.819,4.084,-12.173,107.855,359.980,359.717,33.898,"Curva 1: Strettissima, frenare.",3.72
623.44,111.371,0.042,-22.486,24.875,0.032,-8.154,1.000,0.000,0.000,-0.193,0.024,26.177,22.331,-1.117,-12.020,108.571,359.978,0.664,34.349,"Curva 1: Strettissima, frenare.",3.74
623.46,111.862,0.042,-22.650,24.503,0.009,-8.447,1.000,0.000,0.000,-0.150,0.005,25.917,19.958,-1.482,-12.699,109.352,359.985,0.983,34.795,"Curva 1: Strettissima, frenare.",3.76
623.48,112.351,0.043,-22.810,24.201,0.061,-8.619,1.000,0.000,0.000,-0.248,0.045,25.689,13.278,2.600,-11.198,110.157,359.966,359.898,35.242,"Curva 1: Strettissima, frenare.",3.78
623.50,112.830,0.044,-22.982,23.868,0.024,-8.857,1.000,0.000,0.000,-0.246,0.010,25.457,17.055,-1.867,-11.322,110.913,359.969,0.114,35.679,"Curva 1: Strettissima, frenare.",3.80
623.52,113.301,0.044,-23.164,23.515,-0.002,-9.141,1.000,0.000,0.000,-0.193,-0.012,25.228,19.715,-1.642,-11.155,111.681,359.971,0.984,36.108,"Curva 1: Strettissima, frenare.",3.82
623.54,113.770,0.043,-23.339,23.225,-0.009,-9.282,1.000,0.000,0.000,-0.297,-0.021,25.009,12.017,-0.375,-10.690,112.465,359.971,0.226,36.538,"Curva 1: Strettissima, frenare.",3.84
623.56,114.231,0.044,-23.519,22.903,0.004,-9.457,1.000,0.000,0.000,-0.349,-0.006,24.776,14.406,0.695,-11.360,113.245,359.978,359.890,36.961,"Curva 1: Strettissima, frenare.",3.86
623.58,114.682,0.044,-23.713,22.545,-0.006,-9.723,1.000,0.000,0.000,-0.293,-0.009,24.551,19.402,-0.797,-10.905,114.011,359.986,0.774,37.375,"Curva 1: Strettissima, frenare.",3.88
623.60,115.129,0.043,-23.905,22.201,-0.016,-9.935,1.000,0.000,0.000,-0.302,-0.014,24.321,16.839,-0.675,-11.172,114.820,-0.005,0.681,37.786,"Curva 1: Strettissima, frenare.",3.90
623.62,115.572,0.044,-24.096,21.885,0.040,-10.101,1.000,0.000,0.000,-0.364,0.033,24.101,14.355,2.806,-10.663,115.642,359.985,359.936,38.195,"Curva 1: Strettissima, frenare.",3.92
623.64,116.005,0.044,-24.299,21.532,0.023,-10.326,1.000,0.000,0.000,-0.338,0.020,23.878,17.902,-0.928,-10.792,116.432,359.987,0.359,38.593,"Curva 1: Strettissima, frenare.",3.94
623.66,116.429,0.045,-24.506,21.160,0.007,-10.556,1.000,0.000,0.000,-0.306,0.009,23.645,18.703,-1.082,-11.266,117.254,359.994,0.848,38.986,"Curva 1: Strettissima, frenare.",3.96
623.68,116.852,0.045,-24.711,20.851,0.025,-10.718,1.000,0.000,0.000,-0.361,0.020,23.442,14.453,0.819,-9.815,118.086,359.985,0.210,39.378,"Curva 1: Strettissima, frenare.",3.98
623.70,117.266,0.046,-24.921,20.523,0.023,-10.876,1.000,0.000,0.000,-0.396,0.017,23.223,14.841,-0.084,-10.561,118.898,359.985,0.031,39.763,"Curva 1: Strettissima, frenare.",4.00
623.72,117.671,0.046,-25.140,20.172,0.001,-11.084,1.000,0.000,0.000,-0.367,0.000,23.014,17.708,-1.319,-10.056,119.701,359.988,0.680,40.139,"Curva 1: Strettissima, frenare.",4.02
623.74,118.072,0.045,-25.358,19.841,-0.013,-11.254,1.000,0.000,0.000,-0.386,-0.013,22.808,15.702,-0.856,-9.942,120.532,359.992,0.552,40.513,"Curva 1: Strettissima, frenare.",4.04
623.76,118.468,0.046,-25.577,19.529,0.018,-11.389,1.000,0.000,0.000,-0.440,0.013,22.603,13.890,1.553,-9.843,121.365,359.987,0.017,40.884,"Curva 1: Strettissima, frenare.",4.06
623.78,118.854,0.046,-25.804,19.185,0.004,-11.556,1.000,0.000,0.000,-0.434,0.004,22.392,16.244,-0.807,-10.110,122.173,359.994,0.357,41.247,"Curva 1: Strettissima, frenare.",4.08
623.80,119.233,0.046,-26.034,18.827,-0.007,-11.730,1.000,0.000,0.000,-0.417,0.000,22.178,17.056,-0.727,-10.257,123.004,0.003,0.711,41.603,"Curva 1: Strettissima, frenare.",4.10
623.82,119.609,0.046,-26.263,18.505,0.014,-11.869,1.000,0.000,0.000,-0.450,0.016,21.979,14.710,0.953,-9.510,123.848,0.000,0.258,41.958,"Curva 1: Strettissima, frenare.",4.12
623.84,119.977,0.046,-26.496,18.168,0.022,-12.001,1.000,0.000,0.000,-0.470,0.023,21.769,15.029,0.367,-10.076,124.684,0.002,0.127,42.306,"Curva 1: Strettissima, frenare.",4.14
623.86,120.335,0.047,-26.736,17.812,0.009,-12.165,1.000,0.000,0.000,-0.447,0.015,21.565,17.000,-0.835,-9.756,125.520,0.005,0.589,42.646,"Curva 1: Strettissima, frenare.",4.16
623.88,120.690,0.047,-26.976,17.477,0.002,-12.307,1.000,0.000,0.000,-0.457,0.007,21.371,15.650,-0.483,-9.238,126.378,0.003,0.506,42.984,"Curva 1: Strettissima, frenare.",4.18
623.90,121.039,0.047,-27.216,17.157,0.021,-12.420,1.000,0.000,0.000,-0.495,0.021,21.175,14.191,0.951,-9.317,127.240,-0.003,0.117,43.318,"Curva 1: Strettissima, frenare.",4.20
623.92,121.379,0.047,-27.462,16.815,0.008,-12.547,1.000,0.000,0.000,-0.498,0.011,20.974,15.563,-0.750,-9.560,128.090,0.001,0.341,43.644,"Curva 1: Strettissima, frenare.",4.22
623.94,121.712,0.047,-27.711,16.469,-0.005,-12.680,1.000,0.000,0.000,-0.493,0.003,20.779,16.027,-0.804,-9.263,128.954,0.006,0.595,43.964,"Curva 1: Strettissima, frenare.",4.24
623.96,122.041,0.047,-27.960,16.149,0.006,-12.788,1.000,0.000,0.000,-0.522,0.010,20.593,14.381,0.457,-8.803,129.828,0.004,0.286,44.283,"Curva 1: Strettissima, frenare.",4.26
623.98,122.362,0.048,-28.211,15.819,0.012,-12.886,1.000,0.000,0.000,-0.545,0.016,20.396,14.479,0.240,-9.357,130.697,0.006,0.180,44.595,"Curva 1: Strettissima, frenare.",4.28
624.00,122.675,0.048,-28.467,15.474,0.002,-13.002,1.000,0.000,0.000,-0.539,0.011,20.204,15.771,-0.618,-9.080,131.566,0.011,0.498,44.900,"Curva 1: Strettissima, frenare.",4.30
624.02,122.983,0.048,-28.723,15.143,0.000,-13.108,1.000,0.000,0.000,-0.548,0.008,20.021,15.064,-0.239,-8.593,132.448,0.011,0.463,45.202,"Curva 1: Strettissima, frenare.",4.32
624.04,123.286,0.048,-28.980,14.822,0.015,-13.194,1.000,0.000,0.000,-0.574,0.020,19.836,14.171,0.729,-8.713,133.334,0.007,0.195,45.500,"Curva 1: Strettissima, frenare.",4.34
624.06,123.581,0.048,-29.241,14.483,0.011,-13.285,1.000,0.000,0.000,-0.579,0.017,19.645,15.056,-0.321,-9.002,134.216,0.009,0.326,45.791,"Curva 1: Strettissima, frenare.",4.36
624.08,123.868,0.048,-29.504,14.142,0.003,-13.379,1.000,0.000,0.000,-0.577,0.012,19.460,15.391,-0.513,-8.679,135.109,0.011,0.505,46.076,"Curva 1: Strettissima, frenare.",4.38
624.10,124.151,0.048,-29.766,13.822,0.010,-13.459,1.000,0.000,0.000,-0.597,0.015,19.283,14.294,0.246,-8.270,136.011,0.007,0.308,46.359,"Curva 1: Strettissima, frenare.",4.40
624.12,124.427,0.049,-30.031,13.497,0.014,-13.527,1.000,0.000,0.000,-0.617,0.018,19.099,14.194,0.134,-8.622,136.913,0.006,0.218,46.636,"Curva 1: Strettissima, frenare.",4.42
624.14,124.695,0.049,-30.299,13.160,0.005,-13.603,1.000,0.000,0.000,-0.618,0.012,18.917,15.019,-0.559,-8.490,137.818,0.008,0.424,46.907,"Curva 1: Strettissima, frenare.",4.44
624.16,124.958,0.049,-30.567,12.834,0.001,-13.674,1.000,0.000,0.000,-0.628,0.008,18.743,14.625,-0.269,-8.085,138.735,0.008,0.419,47.174,"Curva 1: Strettissima, frenare.",4.46
624.18,125.215,0.049,-30.835,12.516,0.011,-13.732,1.000,0.000,0.000,-0.651,0.015,18.568,13.988,0.415,-8.084,139.660,0.004,0.235,47.437,"Curva 1: Strettissima, frenare.",4.48
624.20,125.465,0.049,-31.106,12.188,0.008,-13.787,1.000,0.000,0.000,-0.662,0.014,18.390,14.394,-0.192,-8.275,140.584,0.007,0.301,47.694,"Curva 1: Strettissima, frenare.",4.50
624.22,125.707,0.049,-31.379,11.857,0.003,-13.844,1.000,0.000,0.000,-0.666,0.012,18.216,14.740,-0.399,-8.054,141.516,0.012,0.436,47.945,"Curva 1: Strettissima, frenare.",4.52
624.24,125.945,0.049,-31.651,11.539,0.007,-13.893,1.000,0.000,0.000,-0.683,0.014,18.047,14.128,0.105,-7.756,142.456,0.013,0.324,48.193,"Curva 1: Strettissima, frenare.",4.54
624.26,126.176,0.050,-31.924,11.221,0.011,-13.931,1.000,0.000,0.000,-0.702,0.018,17.875,13.876,0.153,-7.932,143.397,0.015,0.240,48.436,"Curva 1: Strettissima, frenare.",4.56
624.28,126.400,0.050,-32.199,10.897,0.005,-13.970,1.000,0.000,0.000,-0.709,0.015,17.703,14.311,-0.381,-7.879,144.340,0.019,0.364,48.673,"Curva 1: Strettissima, frenare.",4.58
624.30,126.618,0.050,-32.475,10.579,0.002,-14.006,1.000,0.000,0.000,-0.721,0.013,17.538,14.085,-0.258,-7.552,145.291,0.021,0.384,48.906,"Curva 1: Strettissima, frenare.",4.60
624.32,126.831,0.050,-32.750,10.273,0.007,-14.033,1.000,0.000,0.000,-0.744,0.016,17.375,13.459,0.201,-7.422,146.244,0.020,0.254,49.135,"Curva 1: Strettissima, frenare.",4.62
624.34,127.037,0.050,-33.027,9.965,0.006,-14.052,1.000,0.000,0.000,-0.761,0.016,17.210,13.475,-0.144,-7.538,147.192,0.022,0.273,49.359,"Curva 1: Strettissima, frenare.",4.64
624.36,127.237,0.050,-33.304,9.654,0.000,-14.072,1.000,0.000,0.000,-0.771,0.013,17.047,13.726,-0.367,-7.372,148.138,0.025,0.379,49.577,"Curva 1: Strettissima, frenare.",4.66
624.38,127.431,0.050,-33.581,9.352,0.001,-14.086,1.000,0.000,0.000,-0.787,0.013,16.889,13.292,-0.032,-7.139,149.086,0.025,0.320,49.792,"Curva 1: Strettissima, frenare.",4.68
624.40,127.620,0.050,-33.859,9.058,0.005,-14.090,1.000,0.000,0.000,-0.807,0.016,16.731,12.858,0.138,-7.154,150.027,0.026,0.239,50.003,"Curva 1: Strettissima, frenare.",4.70
624.42,127.802,0.050,-34.137,8.764,0.002,-14.090,1.000,0.000,0.000,-0.821,0.015,16.573,12.824,-0.219,-7.149,150.953,0.029,0.305,50.208,"Curva 1: Strettissima, frenare.",4.72
624.44,127.978,0.050,-34.415,8.477,0.000,-14.087,1.000,0.000,0.000,-0.833,0.013,16.420,12.640,-0.196,-6.893,151.868,0.030,0.344,50.409,"Curva 1: Strettissima, frenare.",4.74
624.46,128.150,0.050,-34.692,8.203,0.003,-14.076,1.000,0.000,0.000,-0.852,0.015,16.269,11.885,0.102,-6.772,152.763,0.029,0.250,50.606,"Curva 1: Strettissima, frenare.",4.76
624.48,128.315,0.050,-34.970,7.930,0.003,-14.058,1.000,0.000,0.000,-0.862,0.015,16.117,11.860,-0.018,-6.863,153.637,0.029,0.242,50.799,"Curva 1: Strettissima, frenare.",4.78
624.50,128.474,0.050,-35.248,7.652,0.001,-14.040,1.000,0.000,0.000,-0.861,0.014,15.966,12.156,-0.205,-6.820,154.495,0.030,0.328,50.987,"Curva 1: Strettissima, frenare.",4.80
624.52,128.629,0.050,-35.525,7.379,0.002,-14.017,1.000,0.000,0.000,-0.858,0.014,15.817,11.927,-0.029,-6.711,155.343,0.029,0.303,51.171,"Curva 1: Strettissima, frenare.",4.82
624.54,128.778,0.051,-35.801,7.114,0.005,-13.987,1.000,0.000,0.000,-0.857,0.016,15.669,11.497,0.130,-6.722,156.173,0.028,0.226,51.352,"Curva 1: Strettissima, frenare.",4.84
624.56,128.921,0.051,-36.078,6.852,0.003,-13.952,1.000,0.000,0.000,-0.851,0.015,15.520,11.348,-0.139,-6.752,156.980,0.028,0.258,51.528,"Curva 1: Strettissima, frenare.",4.86
624.58,129.059,0.051,-36.353,6.591,0.001,-13.915,1.000,0.000,0.000,-0.837,0.013,15.374,11.393,-0.196,-6.660,157.772,0.029,0.312,51.700,"Curva 1: Strettissima, frenare.",4.88
624.60,129.192,0.051,-36.628,6.335,0.002,-13.873,1.000,0.000,0.000,-0.824,0.014,15.229,11.137,0.008,-6.601,158.551,0.029,0.265,51.868,"Curva 1: Strettissima, frenare.",4.90
624.62,129.320,0.051,-36.902,6.082,0.004,-13.826,1.000,0.000,0.000,-0.806,0.015,15.083,11.047,0.033,-6.689,159.318,0.029,0.235,52.032,"Curva 1: Strettissima, frenare.",4.92
624.64,129.443,0.051,-37.176,5.825,0.003,-13.776,1.000,0.000,0.000,-0.781,0.015,14.936,11.200,-0.110,-6.725,160.073,0.031,0.284,52.192,"Curva 1: Strettissima, frenare.",4.94
624.66,129.560,0.051,-37.448,5.572,0.003,-13.723,1.000,0.000,0.000,-0.755,0.015,14.792,11.100,-0.055,-6.669,160.823,0.034,0.290,52.348,"Curva 1: Strettissima, frenare.",4.96
624.68,129.673,0.051,-37.719,5.326,0.005,-13.664,1.000,0.000,0.000,-0.731,0.017,14.647,10.743,0.076,-6.667,161.566,0.036,0.235,52.501,"Curva 1: Strettissima, frenare.",4.98
624.70,129.781,0.051,-37.989,5.082,0.005,-13.601,1.000,0.000,0.000,-0.706,0.017,14.503,10.635,-0.069,-6.692,162.298,0.037,0.240,52.649,"Curva 1: Strettissima, frenare.",5.00
624.72,129.883,0.051,-38.258,4.842,0.003,-13.536,1.000,0.000,0.000,-0.679,0.016,14.360,10.514,-0.160,-6.628,163.022,0.039,0.272,52.794,"Curva 1: Strettissima, frenare.",5.02
624.74,129.982,0.051,-38.525,4.601,0.003,-13.467,1.000,0.000,0.000,-0.648,0.016,14.217,10.643,-0.062,-6.682,163.749,0.040,0.268,52.934,"Curva 1: Strettissima, frenare.",5.04
624.76,130.075,0.051,-38.791,4.348,0.004,-13.396,1.000,0.000,0.000,-0.608,0.017,14.071,11.221,0.000,-6.804,164.492,0.042,0.274,53.071,"Curva 1: Strettissima, frenare.",5.06
624.78,130.163,0.051,-39.056,4.096,0.005,-13.321,1.000,0.236,0.000,-0.569,0.018,13.925,11.222,-0.010,-6.845,165.250,0.044,0.276,53.204,"Curva 1: Strettissima, frenare.",5.08
624.80,130.246,0.052,-39.319,3.846,0.006,-13.241,1.000,0.236,0.000,-0.534,0.019,13.778,11.196,-0.022,-6.899,166.024,0.046,0.270,53.334,"Curva 1: Strettissima, frenare.",5.10
624.82,130.325,0.052,-39.581,3.593,0.005,-13.160,1.000,0.236,0.000,-0.497,0.019,13.633,11.372,-0.066,-6.814,166.817,0.048,0.279,53.459,"Curva 1: Strettissima, frenare.",5.12
624.84,130.399,0.052,-39.841,3.346,0.005,-13.079,1.000,0.236,0.000,-0.465,0.018,13.492,11.178,-0.094,-6.613,167.624,0.047,0.272,53.580,"Curva 1: Strettissima, frenare.",5.14
624.86,130.468,0.052,-40.099,3.106,0.004,-12.998,1.000,0.302,0.000,-0.437,0.016,13.357,10.944,-0.091,-6.385,168.435,0.044,0.256,53.698,"Curva 1: Strettissima, frenare.",5.16
624.88,130.532,0.052,-40.356,2.862,0.003,-12.915,1.000,0.389,0.000,-0.404,0.014,13.222,11.210,-0.130,-6.364,169.254,0.042,0.278,53.811,"Curva 1: Strettissima, frenare.",5.18
624.90,130.591,0.052,-40.612,2.609,0.002,-12.832,1.000,0.549,0.000,-0.361,0.013,13.090,11.745,-0.102,-6.243,170.085,0.039,0.311,53.920,"Curva 1: Strettissima, frenare.",5.20
624.92,130.646,0.052,-40.865,2.361,0.004,-12.751,1.000,0.549,0.000,-0.320,0.014,12.964,11.608,0.030,-5.968,170.924,0.037,0.281,54.026,"Curva 1: Strettissima, frenare.",5.22
624.94,130.695,0.052,-41.118,2.116,0.005,-12.672,1.000,0.549,0.000,-0.277,0.014,12.845,11.589,0.003,-5.649,171.759,0.033,0.264,54.127,"Curva 1: Strettissima, frenare.",5.24
624.96,130.740,0.052,-41.369,1.871,0.004,-12.596,1.000,0.829,0.000,-0.229,0.011,12.733,11.636,-0.124,-5.334,172.580,0.029,0.292,54.224,"Curva 1: Strettissima, frenare.",5.26
624.98,130.779,0.052,-41.618,1.632,0.003,-12.527,1.000,0.829,0.000,-0.178,0.009,12.632,11.464,-0.104,-4.807,173.385,0.023,0.291,54.317,"Curva 1: Strettissima, frenare.",5.28
625.00,130.814,0.052,-41.867,1.400,0.003,-12.470,1.000,0.829,0.000,-0.126,0.006,12.548,11.277,-0.042,-4.015,174.171,0.012,0.261,54.407,"Curva 1: Strettissima, frenare.",5.30
625.02,130.844,0.052,-42.115,1.173,0.002,-12.424,1.000,0.829,0.000,-0.071,0.002,12.479,11.115,-0.102,-3.294,174.937,-0.002,0.263,54.492,"Curva 1: Strettissima, frenare.",5.32
625.04,130.870,0.052,-42.362,0.954,0.000,-12.393,1.000,0.829,0.000,-0.018,-0.004,12.430,10.780,-0.154,-2.366,175.681,359.983,0.268,54.574,"Curva 1: Strettissima, frenare.",5.34
625.06,130.891,0.052,-42.610,0.748,-0.001,-12.379,1.000,0.892,0.000,0.030,-0.009,12.401,10.231,-0.085,-1.386,176.405,359.965,0.240,54.653,"Curva 1: Strettissima, frenare.",5.36
625.08,130.908,0.051,-42.857,0.551,-0.002,-12.377,1.000,1.000,0.000,0.073,-0.013,12.389,9.847,-0.077,-0.588,177.113,359.949,0.226,54.729,"Curva 1: Strettissima, frenare.",5.38
625.10,130.922,0.051,-43.104,0.359,-0.003,-12.386,1.000,1.000,0.000,0.114,-0.017,12.390,9.580,-0.103,0.072,177.809,359.936,0.237,54.802,"Curva 1: Strettissima, frenare.",5.40
625.12,130.931,0.051,-43.352,0.179,-0.003,-12.412,1.000,1.000,0.000,0.146,-0.020,12.412,9.034,-0.034,1.063,178.497,359.924,0.217,54.873,"Curva 1: Strettissima, frenare.",5.42
625.14,130.938,0.051,-43.601,0.009,-0.002,-12.453,1.000,1.000,0.000,0.169,-0.022,12.452,8.558,0.002,1.957,179.183,359.912,0.192,54.941,"Curva 1: Strettissima, frenare.",5.44
625.16,130.940,0.051,-43.852,-0.157,-0.003,-12.508,1.000,1.000,0.000,0.184,-0.025,12.507,8.282,-0.057,2.705,179.876,359.899,0.201,55.008,"Curva 1: Strettissima, frenare.",5.46
625.18,130.940,0.051,-44.103,-0.317,-0.003,-12.573,1.000,1.000,0.000,0.190,-0.028,12.576,7.960,-0.049,3.360,180.577,359.888,0.202,55.073,"Curva 1: Strettissima, frenare.",5.48
625.20,130.937,0.051,-44.356,-0.472,-0.002,-12.646,1.000,1.000,0.000,0.188,-0.030,12.653,7.693,0.004,3.809,181.286,359.878,0.182,55.137,"Curva 1: Strettissima, frenare.",5.50
625.22,130.931,0.050,-44.611,-0.628,-0.002,-12.723,1.000,1.000,0.000,0.182,-0.031,12.738,7.638,-0.024,4.145,182.005,359.872,0.184,55.200,"Curva 1: Strettissima, frenare.",5.52
625.24,130.921,0.050,-44.867,-0.783,-0.002,-12.805,1.000,1.000,0.000,0.173,-0.033,12.828,7.583,-0.049,4.456,182.730,359.868,0.195,55.261,"Curva 1: Strettissima, frenare.",5.54
625.26,130.909,0.050,-45.125,-0.940,-0.002,-12.890,1.000,1.000,0.000,0.159,-0.033,12.923,7.536,-0.017,4.696,183.462,359.865,0.189,55.320,"Curva 1: Strettissima, frenare.",5.56
625.28,130.893,0.050,-45.385,-1.099,-0.002,-12.975,1.000,1.000,0.000,0.145,-0.033,13.020,7.614,-0.023,4.816,184.200,359.863,0.186,55.379,"Curva 1: Strettissima, frenare.",5.58
625.30,130.874,0.050,-45.647,-1.261,-0.002,-13.059,1.000,1.000,0.000,0.131,-0.034,13.119,7.738,-0.045,4.894,184.945,359.862,0.197,55.436,"Curva 1: Strettissima, frenare.",5.60
625.32,130.852,0.050,-45.910,-1.427,-0.002,-13.143,1.000,1.000,0.000,0.115,-0.034,13.219,7.818,-0.028,4.995,185.697,359.861,0.200,55.491,"Curva 1: Strettissima, frenare.",5.62
625.34,130.827,0.050,-46.176,-1.595,-0.002,-13.225,1.000,1.000,0.000,0.098,-0.035,13.321,7.901,-0.031,5.053,186.455,359.859,0.196,55.545,"Curva 1: Strettissima, frenare.",5.64
625.36,130.798,0.050,-46.443,-1.769,-0.002,-13.306,1.000,1.000,0.000,0.082,-0.036,13.422,8.105,-0.051,5.075,187.221,359.857,0.205,55.598,"Curva 1: Strettissima, frenare.",5.66
625.38,130.766,0.050,-46.711,-1.946,-0.002,-13.384,1.000,1.000,0.000,0.066,-0.036,13.525,8.260,-0.056,5.129,187.994,359.855,0.212,55.649,"Curva 1: Strettissima, frenare.",5.68
625.40,130.730,0.050,-46.981,-2.128,-0.002,-13.461,1.000,1.000,0.000,0.050,-0.037,13.628,8.390,-0.027,5.176,188.774,359.853,0.210,55.698,"Curva 1: Strettissima, frenare.",5.70
625.42,130.690,0.050,-47.253,-2.313,-0.002,-13.536,1.000,1.000,0.000,0.033,-0.038,13.732,8.502,-0.050,5.217,189.561,359.851,0.211,55.746,"Curva 1: Strettissima, frenare.",5.72
625.44,130.647,0.050,-47.526,-2.500,-0.002,-13.609,1.000,1.000,0.000,0.014,-0.038,13.836,8.543,-0.055,5.271,190.351,359.849,0.212,55.792,"Curva 1: Strettissima, frenare.",5.74
625.46,130.600,0.050,-47.801,-2.691,-0.002,-13.680,1.000,1.000,0.000,-0.004,-0.039,13.942,8.691,-0.057,5.324,191.146,359.848,0.220,55.836,"Curva 1: Strettissima, frenare.",5.76
625.48,130.549,0.050,-48.078,-2.886,-0.002,-13.748,1.000,1.000,0.000,-0.022,-0.040,14.048,8.807,-0.059,5.374,191.945,359.846,0.223,55.878,"Curva 1: Strettissima, frenare.",5.78
625.50,130.494,0.050,-48.355,-3.083,-0.002,-13.815,1.000,1.000,0.000,-0.041,-0.041,14.154,8.888,-0.037,5.410,192.746,359.844,0.221,55.919,"Curva 1: Strettissima, frenare.",5.80
625.52,130.435,0.050,-48.635,-3.285,-0.002,-13.878,1.000,1.000,0.000,-0.059,-0.041,14.261,9.048,-0.057,5.445,193.552,359.842,0.226,55.957,"Curva 1: Strettissima, frenare.",5.82
625.54,130.372,0.050,-48.915,-3.489,-0.002,-13.939,1.000,1.000,0.000,-0.077,-0.042,14.369,9.147,-0.054,5.492,194.360,359.840,0.232,55.994,"Curva 1: Strettissima, frenare.",5.84
625.56,130.305,0.049,-49.197,-3.697,-0.002,-13.998,1.000,1.000,0.000,-0.095,-0.042,14.477,9.258,-0.039,5.535,195.171,359.838,0.231,56.029,"Curva 1: Strettissima, frenare.",5.86
625.58,130.234,0.049,-49.480,-3.908,-0.002,-14.053,1.000,1.000,0.000,-0.113,-0.043,14.586,9.408,-0.056,5.565,195.985,359.837,0.235,56.061,"Curva 1: Strettissima, frenare.",5.88
625.60,130.158,0.049,-49.764,-4.123,-0.002,-14.105,1.000,1.000,0.000,-0.131,-0.044,14.694,9.522,-0.066,5.588,196.803,359.835,0.239,56.092,"Curva 1: Strettissima, frenare.",5.90
625.62,130.078,0.049,-50.049,-4.340,-0.002,-14.154,1.000,1.000,0.000,-0.149,-0.045,14.803,9.625,-0.045,5.622,197.623,359.833,0.240,56.120,"Curva 1: Strettissima, frenare.",5.92
625.64,129.994,0.049,-50.335,-4.561,-0.002,-14.199,1.000,1.000,0.000,-0.167,-0.045,14.913,9.733,-0.066,5.644,198.448,359.831,0.242,56.147,"Curva 1: Strettissima, frenare.",5.94
625.66,129.905,0.049,-50.622,-4.785,-0.002,-14.241,1.000,1.000,0.000,-0.185,-0.046,15.022,9.893,-0.072,5.669,199.276,359.830,0.249,56.170,"Curva 1: Strettissima, frenare.",5.96
625.68,129.811,0.049,-50.910,-5.012,-0.002,-14.279,1.000,1.000,0.000,-0.202,-0.047,15.131,10.022,-0.066,5.682,200.109,359.828,0.251,56.192,"Curva 1: Strettissima, frenare.",5.98
625.70,129.713,0.049,-51.199,-5.243,-0.002,-14.312,1.000,1.000,0.000,-0.220,-0.047,15.240,10.166,-0.051,5.689,200.947,359.827,0.253,56.212,"Curva 1: Strettissima, frenare.",6.00
625.72,129.610,0.049,-51.489,-5.476,-0.002,-14.342,1.000,1.000,0.000,-0.239,-0.048,15.350,10.262,-0.058,5.717,201.789,359.825,0.255,56.229,"Curva 1: Strettissima, frenare.",6.02
625.74,129.503,0.049,-51.779,-5.710,-0.002,-14.369,1.000,1.000,0.000,-0.260,-0.049,15.459,10.293,-0.069,5.734,202.635,359.823,0.255,56.243,"Curva 1: Strettissima, frenare.",6.04
625.76,129.391,0.049,-52.069,-5.947,-0.003,-14.391,1.000,1.000,0.000,-0.281,-0.050,15.569,10.407,-0.079,5.752,203.484,359.822,0.259,56.255,"Curva 1: Strettissima, frenare.",6.06
625.78,129.274,0.049,-52.361,-6.185,-0.003,-14.410,1.000,1.000,0.000,-0.302,-0.050,15.678,10.500,-0.071,5.761,204.336,359.821,0.262,56.265,"Curva 1: Strettissima, frenare.",6.08
625.80,129.152,0.049,-52.652,-6.427,-0.003,-14.424,1.000,1.000,0.000,-0.324,-0.051,15.788,10.610,-0.063,5.780,205.192,359.819,0.263,56.272,"Curva 1: Strettissima, frenare.",6.10
625.82,129.025,0.049,-52.944,-6.670,-0.003,-14.434,1.000,1.000,0.000,-0.346,-0.052,15.897,10.728,-0.073,5.777,206.051,359.818,0.268,56.277,"Curva 1: Strettissima, frenare.",6.12
625.84,128.894,0.049,-53.236,-6.916,-0.003,-14.438,1.000,1.000,0.000,-0.369,-0.052,16.005,10.868,-0.062,5.776,206.914,359.817,0.271,56.279,"Curva 1: Strettissima, frenare.",6.14
625.86,128.757,0.049,-53.528,-7.165,-0.002,-14.438,1.000,1.000,0.000,-0.391,-0.052,16.113,10.996,-0.066,5.773,207.783,359.815,0.274,56.278,"Curva 1: Strettissima, frenare.",6.16
625.88,128.616,0.048,-53.820,-7.416,-0.002,-14.432,1.000,1.000,0.000,-0.414,-0.053,16.220,11.143,-0.062,5.762,208.657,359.814,0.276,56.275,"Curva 1: Strettissima, frenare.",6.18
625.90,128.469,0.048,-54.113,-7.668,-0.002,-14.422,1.000,1.000,0.000,-0.439,-0.054,16.328,11.227,-0.076,5.768,209.537,359.813,0.278,56.269,"Curva 1: Strettissima, frenare.",6.20
625.92,128.317,0.048,-54.405,-7.920,-0.002,-14.407,1.000,1.000,0.000,-0.465,-0.054,16.434,11.260,-0.082,5.761,210.421,359.811,0.277,56.261,"Curva 1: Strettissima, frenare.",6.22
625.94,128.160,0.048,-54.696,-8.175,-0.003,-14.387,1.000,1.000,0.000,-0.493,-0.055,16.540,11.374,-0.088,5.763,211.310,359.811,0.282,56.249,"Curva 1: Strettissima, frenare.",6.24
625.96,127.998,0.048,-54.987,-8.430,-0.003,-14.363,1.000,1.000,0.000,-0.521,-0.056,16.646,11.487,-0.078,5.766,212.204,359.809,0.286,56.235,"Curva 1: Strettissima, frenare.",6.26
625.98,127.831,0.048,-55.278,-8.688,-0.003,-14.332,1.000,1.000,0.000,-0.550,-0.056,16.751,11.592,-0.081,5.756,213.103,359.808,0.287,56.218,"Curva 1: Strettissima, frenare.",6.28
626.00,127.659,0.048,-55.569,-8.947,-0.003,-14.296,1.000,1.000,0.000,-0.580,-0.057,16.855,11.748,-0.075,5.743,214.007,359.807,0.291,56.198,"Curva 1: Strettissima, frenare.",6.30
626.02,127.481,0.048,-55.858,-9.207,-0.003,-14.254,1.000,1.000,0.000,-0.610,-0.057,16.958,11.889,-0.072,5.731,214.919,359.805,0.295,56.175,"Curva 1: Strettissima, frenare.",6.32
626.04,127.298,0.048,-56.147,-9.469,-0.002,-14.206,1.000,1.000,0.000,-0.641,-0.057,17.060,12.025,-0.068,5.724,215.837,359.804,0.299,56.149,"Curva 1: Strettissima, frenare.",6.34
626.06,127.110,0.048,-56.435,-9.732,-0.002,-14.153,1.000,1.000,0.000,-0.674,-0.058,17.163,12.110,-0.075,5.732,216.762,359.803,0.298,56.120,"Curva 1: Strettissima, frenare.",6.36
626.08,126.917,0.048,-56.721,-9.994,-0.002,-14.095,1.000,1.000,0.000,-0.710,-0.058,17.264,12.145,-0.073,5.721,217.692,359.801,0.297,56.088,"Curva 1: Strettissima, frenare.",6.38
626.10,126.718,0.048,-57.007,-10.256,-0.003,-14.033,1.000,1.000,0.000,-0.747,-0.059,17.365,12.193,-0.118,5.756,218.626,359.800,0.301,56.053,"Curva 1: Strettissima, frenare.",6.40
626.12,126.514,0.048,-57.291,-10.517,-0.003,-13.967,0.845,1.000,0.000,-0.788,-0.060,17.466,12.142,-0.104,5.750,219.562,359.799,0.296,56.015,"Curva 1: Strettissima, frenare.",6.42
626.14,126.304,0.048,-57.575,-10.777,-0.004,-13.897,0.845,1.000,0.000,-0.830,-0.061,17.566,12.138,-0.107,5.800,220.498,359.798,0.294,55.974,"Curva 1: Strettissima, frenare.",6.44
626.16,126.090,0.048,-57.856,-11.034,-0.004,-13.825,0.845,1.000,0.000,-0.875,-0.062,17.667,12.059,-0.109,5.803,221.430,359.796,0.293,55.930,"Curva 1: Strettissima, frenare.",6.46
626.18,125.870,0.047,-58.137,-11.294,-0.004,-13.746,0.845,1.000,0.000,-0.917,-0.063,17.767,12.235,-0.100,5.825,222.360,359.795,0.302,55.882,"Curva 1: Strettissima, frenare.",6.48
626.20,125.645,0.047,-58.415,-11.554,-0.004,-13.661,0.845,1.000,0.000,-0.957,-0.063,17.866,12.408,-0.064,5.837,223.290,359.794,0.310,55.832,"Curva 1: Strettissima, frenare.",6.50
626.22,125.414,0.048,-58.692,-11.825,0.003,-13.556,0.719,1.000,0.000,-0.975,-0.055,17.962,13.348,0.236,5.669,224.204,359.800,0.317,55.778,"Curva 1: Strettissima, frenare.",6.52
626.24,125.179,0.048,-58.967,-12.086,0.023,-13.479,0.719,1.000,0.000,-1.020,-0.031,18.075,11.934,0.965,6.529,225.109,359.821,0.151,55.722,"Curva 1: Strettissima, frenare.",6.54
626.26,124.937,0.048,-59.240,-12.331,-0.017,-13.419,0.593,1.000,0.000,-1.076,-0.075,18.192,10.651,-2.097,6.729,225.964,359.800,0.318,55.661,"Curva 1: Strettissima, frenare.",6.56
626.28,124.690,0.047,-59.513,-12.563,-0.026,-13.357,0.593,1.000,0.000,-1.125,-0.090,18.302,10.229,-0.494,6.322,226.762,359.780,0.300,55.598,"Curva 1: Strettissima, frenare.",6.58
626.30,124.440,0.047,-59.785,-12.755,-0.018,-13.310,0.545,1.000,0.000,-1.197,-0.090,18.396,8.214,0.340,5.494,227.502,359.772,0.077,55.535,"Curva 1: Strettissima, frenare.",6.60
626.32,124.184,0.046,-60.054,-12.980,-0.018,-13.258,0.545,1.000,0.000,-1.228,-0.086,18.514,9.439,-0.034,6.674,228.186,359.774,0.203,55.467,"Curva 1: Strettissima, frenare.",6.62
626.34,123.923,0.046,-60.321,-13.203,-0.014,-13.209,0.545,1.000,0.000,-1.240,-0.079,18.635,9.176,0.085,6.788,228.793,359.780,0.326,55.397,"Curva 1: Strettissima, frenare.",6.64
626.36,123.658,0.046,-60.589,-13.427,-0.001,-13.166,0.545,1.000,0.000,-1.234,-0.070,18.765,8.933,0.589,7.081,229.325,359.779,0.188,55.326,"Curva 1: Strettissima, frenare.",6.66
626.38,123.388,0.046,-60.854,-13.662,0.007,-13.113,0.545,1.000,0.000,-1.202,-0.064,18.899,9.619,0.359,7.265,229.812,359.773,0.168,55.251,"Curva 1: Strettissima, frenare.",6.68
626.40,123.111,0.046,-61.118,-13.905,0.006,-13.050,0.555,1.000,0.000,-1.149,-0.065,19.035,10.172,-0.130,7.328,230.269,359.767,0.304,55.174,"Curva 1: Strettissima, frenare.",6.70
626.42,122.831,0.046,-61.381,-14.136,0.005,-13.003,0.555,1.000,0.000,-1.102,-0.071,19.175,9.166,-0.136,7.434,230.681,359.760,0.235,55.095,"Curva 1: Strettissima, frenare.",6.72
626.44,122.547,0.046,-61.643,-14.357,0.004,-12.969,0.555,1.000,0.000,-1.059,-0.078,19.319,8.242,-0.104,7.557,231.044,359.752,0.107,55.015,"Curva 1: Strettissima, frenare.",6.74
626.46,122.257,0.047,-61.904,-14.589,0.014,-12.924,0.593,1.000,0.000,-0.985,-0.061,19.465,9.024,0.459,7.617,231.360,359.773,0.123,54.932,"Curva 1: Strettissima, frenare.",6.76
626.48,121.961,0.046,-62.162,-14.824,-0.019,-12.890,0.593,1.000,0.000,-0.908,-0.095,19.624,8.595,-1.730,8.194,231.640,359.763,0.348,54.846,"Curva 1: Strettissima, frenare.",6.78
626.50,121.661,0.045,-62.422,-15.055,-0.022,-12.864,0.593,1.000,0.000,-0.831,-0.107,19.784,8.171,-0.231,8.236,231.892,359.746,0.204,54.761,"Curva 1: Strettissima, frenare.",6.80
626.52,121.358,0.045,-62.681,-15.263,-0.015,-12.839,0.593,1.000,0.000,-0.766,-0.107,19.930,7.349,0.328,7.471,232.131,359.735,0.032,54.674,"Curva 1: Strettissima, frenare.",6.82
626.54,121.049,0.045,-62.938,-15.495,-0.015,-12.814,0.710,1.000,0.000,-0.686,-0.107,20.095,8.070,-0.063,8.416,232.364,359.732,0.218,54.585,"Curva 1: Strettissima, frenare.",6.84
626.56,120.735,0.045,-63.195,-15.739,-0.012,-12.777,0.777,1.000,0.000,-0.589,-0.103,20.264,8.918,0.062,8.573,232.595,359.732,0.340,54.494,"Curva 1: Strettissima, frenare.",6.86
626.58,120.416,0.045,-63.452,-16.001,0.001,-12.725,0.777,1.000,0.000,-0.483,-0.094,20.438,9.960,0.585,8.863,232.860,359.726,0.225,54.403,"Curva 1: Strettissima, frenare.",6.88
626.60,120.093,0.045,-63.708,-16.267,0.010,-12.668,0.574,1.000,0.000,-0.395,-0.090,20.614,10.251,0.343,8.940,233.187,359.718,0.183,54.310,"Curva 1: Strettissima, frenare.",6.90
626.62,119.764,0.045,-63.962,-16.536,0.006,-12.599,0.574,1.000,0.000,-0.319,-0.095,20.786,10.777,-0.270,8.780,233.575,359.714,0.307,54.215,"Curva 1: Strettissima, frenare.",6.92
626.64,119.430,0.045,-64.215,-16.800,0.002,-12.532,0.574,1.000,0.000,-0.267,-0.102,20.957,10.459,-0.328,8.706,234.007,359.713,0.289,54.119,"Curva 1: Strettissima, frenare.",6.94
626.66,119.092,0.045,-64.469,-17.055,0.000,-12.469,0.574,1.000,0.000,-0.238,-0.105,21.125,9.979,-0.150,8.545,234.474,359.712,0.178,54.022,"Curva 1: Strettissima, frenare.",6.96
626.68,118.748,0.045,-64.720,-17.311,-0.008,-12.393,0.574,1.000,0.000,-0.214,-0.113,21.289,10.445,-0.493,8.319,234.976,359.716,0.239,53.923,"Curva 1: Strettissima, frenare.",6.98
626.70,118.399,0.044,-64.969,-17.564,-0.015,-12.311,0.574,1.000,0.000,-0.196,-0.118,21.448,10.549,-0.444,8.098,235.495,359.722,0.309,8.135,,7.00
626.72,118.045,0.044,-65.218,-17.810,-0.013,-12.230,0.477,1.000,0.000,-0.188,-0.116,21.604,10.237,0.003,7.941,236.021,359.725,0.227,8.181,,7.02
626.74,117.687,0.044,-65.465,-18.053,-0.010,-12.147,0.477,1.000,0.000,-0.184,-0.114,21.758,10.148,0.088,7.849,236.548,359.725,0.191,8.245,,7.04
626.76,117.324,0.044,-65.710,-18.287,-0.010,-12.069,0.477,1.000,0.000,-0.182,-0.114,21.910,9.618,-0.074,7.689,237.049,359.726,0.234,8.327,,7.06
626.78,116.955,0.044,-65.953,-18.521,-0.008,-11.992,0.477,1.000,0.000,-0.171,-0.114,22.064,9.525,0.000,7.798,237.519,359.725,0.244,8.429,,7.08
626.80,116.582,0.043,-66.195,-18.753,-0.005,-11.915,0.322,1.000,0.000,-0.153,-0.112,22.217,9.460,0.105,7.786,237.963,359.721,0.208,8.550,,7.10
626.82,116.205,0.043,-66.434,-18.981,-0.003,-11.837,0.322,1.000,0.000,-0.129,-0.113,22.368,9.274,0.001,7.646,238.381,359.719,0.201,8.689,,7.12
626.84,115.823,0.043,-66.673,-19.199,-0.004,-11.769,0.322,1.000,0.000,-0.107,-0.115,22.519,8.553,-0.109,7.599,238.762,359.718,0.193,8.846,,7.14
626.86,115.436,0.043,-66.909,-19.414,-0.006,-11.706,0.264,1.000,0.000,-0.080,-0.117,22.670,8.211,-0.138,7.582,239.112,359.718,0.185,9.021,,7.16
626.88,115.045,0.043,-67.145,-19.616,-0.007,-11.657,0.216,1.000,0.000,-0.060,-0.119,22.818,7.295,-0.133,7.461,239.430,359.720,0.147,9.214,,7.18
626.90,114.650,0.043,-67.380,-19.803,-0.009,-11.628,0.216,1.000,0.000,-0.049,-0.121,22.964,5.933,-0.138,7.309,239.701,359.722,0.096,9.423,,7.20
626.92,114.252,0.043,-67.614,-19.985,-0.011,-11.600,0.206,1.000,0.000,-0.028,-0.122,23.107,5.790,-0.152,7.200,239.938,359.725,0.131,9.649,,7.22
626.94,113.849,0.042,-67.847,-20.158,-0.011,-11.584,0.206,1.000,0.000,-0.012,-0.122,23.249,4.967,-0.046,7.107,240.144,359.727,0.119,9.892,,7.24
626.96,113.444,0.042,-68.080,-20.315,-0.009,-11.590,0.206,1.000,0.000,-0.009,-0.120,23.388,3.623,0.075,6.965,240.314,359.727,0.031,10.150,,7.26
626.98,113.035,0.042,-68.313,-20.469,-0.008,-11.592,0.206,1.000,0.000,0.005,-0.119,23.523,3.724,0.028,6.728,240.464,359.728,0.070,10.423,,7.28
627.00,112.623,0.042,-68.546,-20.619,-0.006,-11.594,0.206,1.000,0.000,0.020,-0.118,23.655,3.617,0.031,6.619,240.602,359.729,0.121,10.710,,7.30
627.02,112.209,0.042,-68.779,-20.761,-0.004,-11.606,0.206,1.000,0.000,0.024,-0.117,23.785,2.939,0.081,6.477,240.737,359.729,0.047,11.011,,7.32
627.04,111.792,0.042,-69.013,-20.899,-0.003,-11.616,0.206,1.000,0.000,0.025,-0.116,23.910,2.924,0.015,6.277,240.874,359.730,0.029,11.324,,7.34
