PosX,PosY,PosZ,VelX,VelY,VelZ,Steering,Throttle,Brake,LocalVelX,LocalVelY,LocalVelZ,AccLat,AccLong,AccVert,Yaw,Pitch,Roll,DistFromIdeal,Curva,LapTime
-18.527,0.027,-23.428,36.064,0.02,0.3,0.0,1.0,0.0,0.113,-0.214,36.064,9.762,2.572,-0.25,89.337,359.631,1.202,5.055,,0.02
-17.805,0.027,-23.41,36.066,-0.012,0.416,0.167,1.0,0.0,-0.003,-0.242,36.067,-5.796,-1.656,0.142,89.346,359.636,359.8,5.2,,0.04
-17.084,0.027,-23.394,36.067,-0.007,0.507,0.167,1.0,0.0,-0.122,-0.237,36.07,-4.531,0.18,0.124,89.396,359.639,358.949,5.436,,0.06
-16.363,0.027,-23.401,36.057,0.026,0.284,0.167,1.0,0.0,0.107,-0.212,36.058,11.168,1.456,-0.59,89.374,359.625,0.916,5.734,,0.08
-15.641,0.027,-23.392,36.074,-0.032,0.324,0.167,1.0,0.0,0.075,-0.255,36.074,-2.045,-2.859,0.827,89.363,359.647,0.432,6.116,,0.1
-14.92,0.027,-23.371,36.068,0.023,0.515,0.167,1.0,0.0,-0.13,-0.213,36.071,-9.622,2.509,-0.165,89.395,359.631,358.767,6.564,,0.12
-14.199,0.027,-23.373,36.072,-0.005,0.376,0.254,1.0,0.0,0.006,-0.235,36.073,6.958,-1.413,0.086,89.39,359.635,0.314,7.042,,0.14
-13.477,0.027,-23.373,36.077,-0.012,0.258,0.254,1.0,0.0,0.13,-0.24,36.077,5.891,-0.492,0.198,89.377,359.643,1.104,7.56,,0.16
-12.756,0.027,-23.351,36.065,0.03,0.43,0.187,1.0,0.0,-0.105,-0.207,36.066,-8.62,2.0,-0.526,89.49,359.627,359.108,8.122,,0.18
-12.034,0.027,-23.347,36.081,-0.031,0.315,0.187,1.0,0.0,-0.075,-0.253,36.082,5.784,-3.016,0.773,89.621,359.647,359.695,8.698,,0.2
-11.313,0.027,-23.357,36.078,0.014,0.017,0.0,1.0,0.0,0.146,-0.221,36.077,14.947,1.86,-0.209,89.734,359.633,1.434,9.287,,0.22
-10.591,0.027,-23.343,36.083,-0.005,0.069,0.0,1.0,0.0,-0.001,-0.236,36.082,-2.594,-0.978,0.227,89.895,359.633,359.739,9.905,,0.24
-9.869,0.027,-23.335,36.082,-0.01,0.079,0.0,1.0,0.0,-0.118,-0.237,36.082,-0.488,-0.252,-0.016,90.07,359.643,358.978,10.533,,0.26
-9.148,0.027,-23.353,36.062,0.028,-0.231,0.0,1.0,0.0,0.147,-0.207,36.062,15.529,1.589,-0.974,90.127,359.632,1.147,11.162,,0.28
-8.426,0.027,-23.351,36.084,-0.044,-0.172,0.0,1.0,0.0,0.084,-0.26,36.084,-2.97,-3.579,1.089,90.138,359.659,0.303,11.81,,0.3
-7.705,0.027,-23.34,36.079,0.015,-0.003,0.0,1.0,0.0,-0.116,-0.213,36.079,-8.532,2.737,-0.252,90.196,359.644,358.666,12.469,,0.32
-6.983,0.027,-23.356,36.073,0.004,-0.18,0.0,1.0,0.0,0.052,-0.224,36.073,8.868,-0.609,-0.28,90.2,359.64,0.515,13.125,,0.34
-6.262,0.027,-23.364,36.08,-0.02,-0.242,0.0,1.0,0.0,0.138,-0.242,36.08,3.054,-1.267,0.342,90.158,359.652,0.996,13.79,,0.36
-5.54,0.027,-23.349,36.07,0.041,0.02,0.0,1.0,0.0,-0.136,-0.197,36.07,-13.179,2.809,-0.515,90.19,359.626,358.774,14.468,,0.38
-4.819,0.027,-23.356,36.09,-0.035,-0.047,-0.099,1.0,0.0,-0.079,-0.257,36.089,3.386,-3.799,0.977,90.203,359.648,359.752,15.143,,0.4
-4.097,0.027,-23.371,36.085,0.018,-0.207,-0.099,1.0,0.0,0.118,-0.214,36.085,8.032,2.424,-0.23,90.133,359.636,1.351,15.82,,0.42
-3.375,0.027,-23.359,36.082,0.008,-0.015,-0.041,1.0,0.0,-0.05,-0.223,36.081,-9.552,-0.594,-0.168,90.108,359.634,359.409,16.509,,0.44
-2.653,0.027,-23.355,36.091,-0.029,0.058,-0.041,1.0,0.0,-0.127,-0.249,36.09,-3.646,-1.906,0.439,90.116,359.655,358.985,17.198,,0.46
-1.932,0.027,-23.374,36.079,0.039,-0.168,0.0,1.0,0.0,0.141,-0.197,36.078,11.37,3.185,-0.588,90.036,359.63,1.205,17.883,,0.48
-1.21,0.027,-23.369,36.096,-0.037,-0.065,0.0,1.0,0.0,0.084,-0.256,36.095,-5.166,-3.78,0.845,89.968,359.652,0.191,18.578,,0.5
-0.488,0.027,-23.357,36.091,0.012,0.115,0.0,1.0,0.0,-0.106,-0.217,36.09,-9.035,2.202,-0.247,89.993,359.641,358.631,19.276,,0.52
0.234,0.027,-23.37,36.087,0.01,-0.049,0.0,1.0,0.0,0.054,-0.221,36.087,8.214,-0.167,-0.175,89.99,359.634,0.578,19.97,,0.54
0.956,0.027,-23.374,36.096,-0.025,-0.083,0.0,1.0,0.0,0.114,-0.247,36.095,1.664,-1.777,0.409,89.945,359.651,0.939,20.668,,0.56
1.677,0.027,-23.356,36.083,0.039,0.192,0.0,1.0,0.0,-0.163,-0.2,36.083,-13.839,2.901,-0.592,89.96,359.627,358.708,21.373,,0.58
2.399,0.027,-23.361,36.105,-0.037,0.12,0.0,1.0,0.0,-0.088,-0.258,36.104,3.634,-3.782,1.062,89.952,359.649,359.819,22.073,,0.6
3.121,0.027,-23.372,36.099,0.012,-0.034,0.0,1.0,0.0,0.109,-0.217,36.098,7.743,2.252,-0.298,89.872,359.64,1.375,22.774,,0.62
3.843,0.027,-23.356,36.094,0.011,0.167,0.0,1.0,0.0,-0.069,-0.219,36.094,-10.06,-0.172,-0.226,89.849,359.636,359.334,23.482,,0.64
4.565,0.027,-23.35,36.105,-0.033,0.215,0.0,1.0,0.0,-0.132,-0.251,36.104,-2.349,-2.237,0.533,89.875,359.657,359.048,24.188,,0.66
5.287,0.027,-23.366,36.093,0.041,-0.055,0.0,1.0,0.0,0.15,-0.195,36.092,13.599,3.376,-0.628,89.843,359.63,1.352,24.892,,0.68
6.009,0.027,-23.357,36.108,-0.038,0.032,0.0,1.0,0.0,0.069,-0.257,36.107,-4.406,-3.944,0.777,89.837,359.653,0.143,25.6,,0.7
6.731,0.027,-23.344,36.1,0.011,0.172,0.0,1.0,0.0,-0.113,-0.215,36.099,-7.05,2.264,-0.406,89.913,359.646,358.619,26.311,,0.72
7.453,0.027,-23.358,36.094,0.016,-0.045,0.0,1.0,0.0,0.081,-0.214,36.093,10.869,0.123,-0.289,89.939,359.638,0.731,27.017,,0.74
8.175,0.027,-23.361,36.105,-0.034,-0.086,0.0,1.0,0.0,0.134,-0.251,36.104,1.989,-2.514,0.541,89.917,359.659,0.921,27.726,,0.76
8.897,0.027,-23.342,36.093,0.044,0.189,0.0,1.0,0.0,-0.152,-0.193,36.093,-13.8,3.566,-0.581,89.95,359.63,358.597,28.439,,0.78
9.619,0.027,-23.349,36.108,-0.035,0.09,0.0,1.0,0.0,-0.058,-0.255,36.107,4.957,-3.983,0.738,89.951,359.652,359.916,29.149,,0.8
10.341,0.027,-23.36,36.101,0.007,-0.045,0.0,1.0,0.0,0.121,-0.218,36.101,6.799,1.98,-0.342,89.871,359.647,1.393,29.858,,0.82
11.063,0.027,-23.342,36.096,0.019,0.189,0.0,1.0,0.0,-0.09,-0.211,36.095,-11.708,0.411,-0.259,89.848,359.637,359.186,30.572,,0.84
11.785,0.026,-23.337,36.107,-0.04,0.223,0.0,1.0,0.0,-0.14,-0.255,36.107,-1.668,-2.971,0.573,89.875,359.663,359.107,31.285,,0.86
12.507,0.027,-23.353,36.097,0.045,-0.056,0.0,1.0,0.0,0.145,-0.191,36.096,14.066,3.867,-0.538,89.851,359.632,1.472,31.996,,0.88
13.229,0.027,-23.343,36.109,-0.035,0.053,-0.448,1.0,0.0,0.039,-0.254,36.108,-5.475,-3.984,0.587,89.854,359.653,0.023,32.71,,0.9
13.952,0.027,-23.33,36.103,0.004,0.178,-0.448,1.0,0.0,-0.127,-0.219,36.102,-6.273,1.796,-0.278,89.929,359.651,358.592,33.425,,0.92
14.674,0.027,-23.346,36.097,0.024,-0.078,-0.448,1.0,0.0,0.112,-0.206,36.096,12.82,0.803,-0.315,89.941,359.637,0.912,34.137,,0.94
15.396,0.026,-23.347,36.111,-0.045,-0.088,-0.448,1.0,0.0,0.145,-0.257,36.11,0.43,-3.433,0.723,89.904,359.666,0.819,34.851,,0.96
16.118,0.027,-23.328,36.1,0.045,0.198,-0.496,1.0,0.0,-0.141,-0.19,36.1,-14.423,4.081,-0.527,89.917,359.634,358.455,35.568,,0.98
16.84,0.027,-23.335,36.107,-0.03,0.153,-0.496,1.0,0.0,-0.041,-0.247,36.106,2.26,-3.713,0.315,89.822,359.655,359.904,36.282,,1.0
17.562,0.027,-23.342,36.102,0.016,0.172,-0.487,1.0,0.0,0.111,-0.207,36.102,-0.908,2.301,-0.192,89.545,359.649,1.126,36.996,,1.02
18.284,0.027,-23.317,36.082,0.026,0.61,-0.487,1.0,0.0,-0.126,-0.206,36.087,-21.892,0.061,-0.715,89.24,359.636,358.797,37.714,,1.04
19.006,0.026,-23.308,36.105,-0.054,0.734,0.0,1.0,0.0,-0.103,-0.269,36.111,-6.163,-4.092,1.22,89.003,359.661,359.231,38.43,,1.06
19.728,0.027,-23.309,36.1,0.049,0.688,0.0,1.0,0.0,0.115,-0.19,36.105,2.4,5.072,-0.289,88.719,359.625,1.201,39.146,,1.08
20.449,0.027,-23.279,36.075,-0.006,1.059,0.0,1.0,0.0,-0.066,-0.235,36.089,-18.508,-2.933,-0.758,88.428,359.639,359.428,39.865,,1.1
21.17,0.027,-23.248,36.064,-0.031,1.394,0.0,1.0,0.0,-0.199,-0.25,36.09,-16.731,-1.682,0.027,88.113,359.66,358.466,40.584,,1.12
21.893,0.027,-23.241,36.07,0.056,1.281,0.0,1.0,0.0,0.095,-0.185,36.092,5.711,4.236,0.099,87.809,359.621,1.07,41.301,,1.14
22.613,0.027,-23.212,36.06,-0.052,1.362,0.0,1.0,0.0,0.078,-0.262,36.084,-4.099,-5.324,-0.39,87.709,359.668,0.664,42.02,,1.16
23.334,0.027,-23.165,36.037,0.033,1.627,0.0,1.0,0.0,-0.223,-0.194,36.073,-13.406,3.843,-0.578,87.777,359.649,358.422,42.74,,1.18
24.055,0.027,-23.148,36.048,-0.028,1.443,0.0,1.0,0.0,-0.081,-0.239,36.076,9.186,-3.085,0.171,87.834,359.664,0.328,43.458,,1.2
24.776,0.026,-23.128,36.059,-0.028,1.31,0.0,1.0,0.0,0.055,-0.237,36.082,6.696,-0.143,0.318,87.823,359.67,1.42,44.176,,1.22
25.497,0.027,-23.081,36.044,0.039,1.554,0.0,1.0,0.0,-0.192,-0.196,36.076,-12.333,3.067,-0.295,87.842,359.633,358.845,44.897,,1.24
26.218,0.026,-23.056,36.069,-0.052,1.46,0.0,1.0,0.0,-0.109,-0.267,36.097,4.799,-4.492,1.059,87.859,359.659,359.481,45.616,,1.26
26.94,0.027,-23.045,36.073,0.037,1.214,0.0,1.0,0.0,0.146,-0.198,36.092,12.449,4.081,-0.262,87.833,359.633,1.576,46.334,,1.28
27.661,0.026,-23.004,36.068,0.0,1.388,0.0,1.0,0.0,-0.022,-0.226,36.094,-8.734,-1.867,0.1,87.832,359.64,359.585,47.054,,1.3
28.382,0.026,-22.969,36.073,-0.013,1.47,0.0,1.0,0.0,-0.127,-0.232,36.102,-4.028,-0.779,0.372,87.877,359.658,358.742,47.775,,1.32
29.105,0.027,-22.962,36.073,0.05,1.177,-0.206,1.0,0.0,0.173,-0.185,36.092,14.7,2.85,-0.504,87.851,359.633,1.282,48.493,,1.34
29.826,0.026,-22.931,36.094,-0.05,1.26,-0.206,1.0,0.0,0.103,-0.261,36.115,-4.155,-5.008,1.165,87.835,359.667,0.389,49.213,,1.36
30.547,0.027,-22.89,36.082,0.024,1.457,-0.632,1.0,0.0,-0.126,-0.202,36.111,-9.951,3.456,-0.199,87.897,359.647,358.473,49.934,,1.38
31.27,0.027,-22.876,36.084,0.001,1.3,-0.632,1.0,0.0,0.031,-0.223,36.107,7.834,-1.23,-0.196,87.885,359.645,0.453,50.653,,1.4
31.991,0.027,-22.855,36.092,-0.02,1.281,-0.632,1.0,0.0,0.117,-0.238,36.113,0.962,-1.033,0.324,87.775,359.657,1.061,51.373,,1.42
32.712,0.027,-22.808,36.062,0.042,1.632,-0.632,1.0,0.0,-0.167,-0.196,36.098,-17.698,2.65,-0.764,87.681,359.629,358.594,52.095,,1.44
33.434,0.026,-22.784,36.09,-0.049,1.608,-0.564,1.0,0.0,-0.061,-0.267,36.125,1.271,-4.564,1.351,87.547,359.656,359.659,52.815,,1.46
34.157,0.027,-22.766,36.091,0.025,1.53,-0.206,1.0,0.0,0.15,-0.207,36.123,4.027,3.605,-0.107,87.328,359.639,1.334,53.535,,1.48
34.877,0.027,-22.713,36.056,0.011,1.985,0.0,1.0,0.0,-0.113,-0.221,36.11,-22.822,-1.125,-0.596,87.035,359.636,358.889,54.257,,1.5
35.598,0.026,-22.67,36.044,-0.068,2.246,0.0,1.0,0.0,-0.159,-0.273,36.113,-12.982,-4.25,0.139,86.696,359.681,358.693,54.978,,1.52
36.32,0.027,-22.646,36.035,0.078,2.174,0.0,1.0,0.0,0.145,-0.157,36.1,3.773,7.201,-0.619,86.313,359.634,1.326,55.698,,1.54
37.039,0.027,-22.591,35.991,-0.031,2.45,0.0,1.0,0.0,0.048,-0.236,36.073,-13.953,-5.433,-1.307,86.029,359.675,-0.002,56.419,,1.56
37.758,0.027,-22.529,35.974,0.004,2.655,0.0,1.0,0.0,-0.109,-0.204,36.071,-10.302,1.519,-0.111,85.961,359.673,358.534,57.14,,1.58
38.479,0.027,-22.494,35.988,0.026,2.459,0.0,1.0,0.0,0.057,-0.199,36.072,9.807,0.951,0.045,85.995,359.644,0.823,57.861,,1.6
39.199,0.026,-22.444,36.005,-0.038,2.486,0.0,1.0,0.0,0.023,-0.257,36.089,-1.326,-3.191,0.885,86.007,359.653,0.796,58.582,,1.62
39.918,0.027,-22.376,35.98,0.041,2.722,0.0,1.0,0.0,-0.217,-0.206,36.082,-11.936,3.683,-0.355,86.026,359.616,358.638,59.304,,1.64
40.639,0.027,-22.334,36.014,-0.023,2.574,0.0,1.0,0.0,-0.06,-0.257,36.105,7.488,-3.244,1.119,86.006,359.629,0.104,60.025,,1.66
41.36,0.027,-22.294,36.027,-0.002,2.446,0.0,1.0,0.0,0.121,-0.235,36.109,6.462,0.887,0.217,85.915,359.636,1.295,60.746,,1.68
42.079,0.027,-22.226,36.008,0.028,2.678,0.0,1.0,0.0,-0.091,-0.209,36.107,-11.668,1.332,-0.085,85.896,359.626,359.075,61.468,,1.7
42.8,0.027,-22.174,36.035,-0.041,2.672,0.0,1.0,0.0,-0.106,-0.259,36.132,0.432,-3.426,1.261,85.932,359.656,359.318,62.19,,1.72
43.522,0.027,-22.139,36.048,0.036,2.427,0.0,1.0,0.0,0.131,-0.2,36.128,12.375,3.538,-0.2,85.933,359.631,1.43,62.912,,1.74
44.242,0.027,-22.077,36.048,-0.021,2.562,0.0,1.0,0.0,-0.012,-0.245,36.138,-6.718,-2.868,0.487,85.955,359.643,359.827,63.634,,1.76
44.962,0.027,-22.017,36.04,-0.008,2.658,0.0,1.0,0.0,-0.146,-0.232,36.137,-4.848,0.521,-0.044,86.021,359.65,358.745,64.357,,1.78
45.684,0.027,-21.983,36.044,0.03,2.389,0.0,1.0,0.0,0.119,-0.203,36.122,13.477,1.653,-0.772,86.013,359.634,1.047,65.078,,1.8
46.405,0.026,-21.932,36.059,-0.046,2.433,0.0,1.0,0.0,0.09,-0.259,36.14,-2.203,-3.761,0.894,85.993,359.663,0.539,65.8,,1.82
47.125,0.027,-21.866,36.037,0.031,2.651,0.0,1.0,0.0,-0.133,-0.2,36.133,-11.047,3.551,-0.328,86.011,359.639,358.571,66.523,,1.84
47.847,0.027,-21.827,36.05,-0.007,2.497,0.0,1.0,0.0,0.019,-0.233,36.136,7.738,-1.942,0.143,86.006,359.641,0.321,67.245,,1.86
48.568,0.027,-21.785,36.059,-0.011,2.411,0.0,1.0,0.0,0.132,-0.235,36.138,4.329,-0.289,0.121,85.958,359.649,1.185,67.967,,1.88
49.288,0.027,-21.717,36.026,0.039,2.675,0.0,1.0,0.0,-0.14,-0.199,36.124,-13.353,2.247,-0.7,85.981,359.628,358.865,68.69,,1.9
50.009,0.027,-21.669,36.051,-0.043,2.607,0.0,1.0,0.0,-0.074,-0.26,36.144,3.515,-4.087,0.999,85.985,359.657,359.598,69.412,,1.92
50.731,0.027,-21.633,36.061,0.024,2.413,0.0,1.0,0.0,0.151,-0.208,36.14,9.808,3.098,-0.211,85.924,359.639,1.406,70.134,,1.94
51.451,0.027,-21.569,36.047,-0.001,2.597,0.0,1.0,0.0,-0.016,-0.228,36.14,-9.213,-1.295,-0.031,85.908,359.64,359.523,70.857,,1.96
52.172,0.027,-21.511,36.047,-0.023,2.679,0.0,1.0,0.0,-0.119,-0.243,36.146,-4.086,-1.178,0.307,85.945,359.654,358.889,71.579,,1.98
52.894,0.027,-21.478,36.054,0.041,2.42,0.0,1.0,0.0,0.147,-0.197,36.134,12.986,2.909,-0.575,85.919,359.628,1.218,72.301,,2.0
53.615,0.026,-21.422,36.07,-0.042,2.494,0.0,1.0,0.0,0.083,-0.262,36.156,-3.65,-4.131,1.067,85.911,359.653,0.324,73.024,,2.02
54.335,0.027,-21.357,36.054,0.021,2.67,0.0,1.0,0.0,-0.133,-0.212,36.151,-8.911,2.92,-0.206,85.983,359.637,358.592,73.747,,2.04
55.058,0.027,-21.32,36.062,0.005,2.479,0.0,1.0,0.0,0.036,-0.225,36.147,9.587,-0.892,-0.228,86.008,359.636,0.551,74.469,,2.06
55.779,0.027,-21.275,36.074,-0.026,2.409,0.0,1.0,0.0,0.121,-0.246,36.154,3.466,-1.612,0.338,85.98,359.655,1.063,75.192,,2.08
56.499,0.027,-21.207,36.042,0.042,2.671,0.0,1.0,0.0,-0.155,-0.195,36.141,-13.259,3.132,-0.653,86.013,359.63,358.725,75.915,,2.1
57.221,0.027,-21.161,36.067,-0.041,2.596,0.0,1.0,0.0,-0.088,-0.259,36.16,3.875,-4.164,0.949,86.025,359.655,359.735,76.637,,2.12
57.943,0.027,-21.124,36.073,0.018,2.429,0.0,1.0,0.0,0.118,-0.212,36.154,8.403,2.733,-0.285,85.952,359.641,1.413,77.36,,2.14
58.663,0.027,-21.059,36.053,0.008,2.625,0.225,1.0,0.0,-0.053,-0.221,36.147,-9.848,-0.57,-0.321,85.923,359.637,359.393,78.083,,2.16
59.384,0.027,-21.002,36.057,-0.029,2.685,0.225,1.0,0.0,-0.124,-0.248,36.156,-2.952,-1.915,0.404,85.944,359.656,358.973,78.806,,2.18
60.107,0.027,-20.969,36.062,0.043,2.416,0.003,1.0,0.0,0.158,-0.195,36.142,13.544,3.307,-0.673,85.909,359.629,1.322,79.528,,2.2
60.827,0.026,-20.913,36.076,-0.04,2.465,0.003,1.0,0.0,0.097,-0.259,36.159,-2.433,-4.183,0.852,85.934,359.654,0.293,80.251,,2.22
61.548,0.027,-20.85,36.061,0.021,2.58,0.003,1.0,0.0,-0.107,-0.208,36.153,-5.838,2.963,-0.331,86.086,359.641,358.67,80.974,,2.24
62.27,0.027,-20.816,36.073,0.01,2.288,0.003,1.0,0.0,0.07,-0.221,36.145,14.588,-0.791,-0.344,86.254,359.636,0.781,81.696,,2.26
62.992,0.026,-20.773,36.095,-0.042,2.155,0.003,1.0,0.0,0.112,-0.259,36.158,6.64,-2.705,0.653,86.397,359.659,1.092,82.419,,2.28
63.713,0.027,-20.711,36.075,0.05,2.302,0.0,1.0,0.0,-0.135,-0.19,36.148,-7.496,4.462,-0.518,86.568,359.624,358.806,83.142,,2.3
64.435,0.027,-20.674,36.089,-0.03,2.148,0.0,1.0,0.0,-0.041,-0.251,36.152,7.784,-4.009,0.219,86.661,359.65,359.858,83.864,,2.32
65.157,0.027,-20.644,36.095,0.013,1.981,0.0,1.0,0.0,0.148,-0.216,36.148,8.373,1.948,-0.211,86.617,359.644,1.312,84.586,,2.34
65.878,0.027,-20.588,36.081,0.015,2.181,0.0,1.0,0.0,-0.025,-0.216,36.146,-10.014,0.02,-0.104,86.584,359.634,359.319,85.309,,2.36
66.6,0.027,-20.542,36.091,-0.03,2.236,0.0,1.0,0.0,-0.082,-0.252,36.16,-2.704,-2.303,0.684,86.591,359.651,359.087,86.032,,2.38
67.323,0.027,-20.516,36.098,0.04,2.002,0.0,1.0,0.0,0.164,-0.203,36.152,11.781,3.235,-0.364,86.558,359.621,1.272,86.754,,2.4
68.045,0.027,-20.466,36.111,-0.034,2.116,0.0,1.0,0.0,0.05,-0.261,36.172,-5.659,-3.677,0.989,86.567,359.64,0.082,87.477,,2.42
68.766,0.027,-20.412,36.098,0.004,2.255,0.0,1.0,0.0,-0.139,-0.228,36.167,-7.017,1.729,-0.25,86.653,359.638,358.699,88.2,,2.44
69.489,0.027,-20.384,36.105,0.015,2.036,0.0,1.0,0.0,0.058,-0.218,36.161,10.955,0.378,-0.289,86.676,359.632,0.759,88.923,,2.46
70.211,0.026,-20.345,36.118,-0.035,1.993,0.0,1.0,0.0,0.121,-0.254,36.172,2.146,-2.539,0.545,86.644,359.657,0.859,89.646,,2.48
70.932,0.027,-20.286,36.094,0.041,2.246,0.119,1.0,0.0,-0.139,-0.196,36.163,-12.774,3.502,-0.446,86.666,359.63,358.638,90.369,,2.5
71.655,0.027,-20.251,36.113,-0.03,2.141,0.119,1.0,0.0,-0.032,-0.253,36.176,5.308,-3.548,0.636,86.658,359.648,359.966,91.092,,2.52
72.378,0.027,-20.22,36.114,0.005,2.017,0.119,1.0,0.0,0.136,-0.223,36.169,6.212,1.626,-0.338,86.58,359.645,1.319,91.815,,2.54
73.096,0.026,-20.166,35.996,-0.073,1.81,0.119,1.0,0.0,0.121,-0.245,36.041,10.127,-3.658,-6.455,86.937,359.723,358.916,92.535,,2.56
73.809,0.023,-20.137,35.668,-0.193,1.015,0.119,1.0,0.0,0.483,-0.282,35.678,39.128,-5.03,-18.09,87.605,359.839,358.604,93.247,,2.58
74.521,0.025,-20.133,35.513,0.302,0.335,0.129,1.0,0.0,0.809,-0.031,35.506,33.599,25.032,-8.6,88.154,359.456,359.695,93.958,,2.6
75.231,0.029,-20.126,35.433,0.245,0.269,0.129,1.0,0.0,0.663,-0.207,35.428,3.211,-2.806,-4.098,88.494,359.267,359.947,94.665,,2.62
75.938,0.03,-20.113,35.382,-0.01,0.367,0.129,1.0,0.0,0.378,-0.368,35.38,-4.827,-12.767,-2.58,88.799,359.416,359.513,95.37,,2.64
76.647,0.031,-20.104,35.496,0.014,0.294,0.051,1.0,0.0,0.252,-0.308,35.495,3.735,1.203,5.634,89.123,359.476,359.496,96.078,,2.66
77.36,0.031,-20.103,35.638,0.011,0.141,0.051,1.0,0.0,0.22,-0.32,35.636,7.71,-0.261,7.044,89.418,359.469,0.152,96.788,,2.68
78.076,0.03,-20.098,35.773,-0.051,0.178,0.051,1.0,0.0,0.066,-0.374,35.771,-1.844,-3.151,6.716,89.607,359.483,0.144,9.741,"Curva 1: Strettissima, frenare.",2.7
78.792,0.028,-20.091,35.838,-0.101,0.179,0.051,1.0,0.0,-0.004,-0.405,35.837,-0.02,-2.533,3.258,89.723,359.515,359.775,9.792,"Curva 1: Strettissima, frenare.",2.72
79.509,0.027,-20.09,35.857,-0.074,0.047,0.0,1.0,0.0,0.086,-0.354,35.856,6.6,1.393,0.934,89.789,359.552,359.806,9.89,"Curva 1: Strettissima, frenare.",2.74
80.226,0.027,-20.095,35.888,-0.051,-0.015,0.0,1.0,0.0,0.136,-0.303,35.887,3.148,1.084,1.542,89.802,359.599,0.556,10.032,"Curva 1: Strettissima, frenare.",2.76
80.944,0.027,-20.088,35.904,-0.027,0.079,0.0,1.0,0.0,0.03,-0.253,35.904,-4.734,1.205,0.832,89.827,359.639,359.788,10.234,"Curva 1: Strettissima, frenare.",2.78
81.662,0.027,-20.083,35.905,0.001,0.145,0.0,1.0,0.0,-0.055,-0.212,35.905,-3.309,1.357,0.052,89.859,359.661,359.492,10.479,"Curva 1: Strettissima, frenare.",2.8
82.38,0.027,-20.089,35.893,0.036,0.034,0.0,1.0,0.0,0.071,-0.18,35.892,5.556,1.69,-0.63,89.829,359.656,0.534,10.757,"Curva 1: Strettissima, frenare.",2.82
83.098,0.028,-20.085,35.885,0.028,0.076,0.477,0.755,0.0,0.043,-0.192,35.884,-2.084,-0.396,-0.38,89.809,359.649,0.13,11.083,"Curva 1: Strettissima, frenare.",2.84
83.815,0.028,-20.076,35.872,0.034,0.198,0.477,0.755,0.0,-0.082,-0.198,35.872,-6.089,0.261,-0.606,89.819,359.631,359.305,11.449,"Curva 1: Strettissima, frenare.",2.86
84.532,0.029,-20.08,35.846,0.017,0.105,0.477,0.755,0.0,0.017,-0.217,35.845,4.623,-0.874,-1.365,89.803,359.625,0.297,11.836,"Curva 1: Strettissima, frenare.",2.88
85.248,0.029,-20.081,35.804,-0.008,0.059,0.477,0.755,0.0,0.079,-0.233,35.803,2.292,-1.283,-2.086,89.776,359.641,0.531,12.255,"Curva 1: Strettissima, frenare.",2.9
85.963,0.029,-20.069,35.743,0.0,0.2,0.506,0.657,0.0,-0.079,-0.216,35.743,-7.068,0.331,-3.032,89.81,359.656,359.325,12.709,"Curva 1: Strettissima, frenare.",2.92
86.676,0.029,-20.071,35.669,-0.028,0.087,0.506,0.657,0.0,-0.009,-0.221,35.668,5.627,-1.362,-3.716,89.875,359.691,0.047,13.176,"Curva 1: Strettissima, frenare.",2.94
87.388,0.029,-20.08,35.573,-0.016,-0.183,0.332,0.57,0.0,0.149,-0.195,35.572,13.499,0.37,-4.795,90.048,359.716,1.127,13.657,"Curva 1: Strettissima, frenare.",2.96
88.097,0.029,-20.073,35.467,0.004,-0.205,0.0,0.482,0.0,-0.028,-0.164,35.467,1.174,1.007,-5.288,90.379,359.728,359.739,14.168,"Curva 1: Strettissima, frenare.",2.98
88.804,0.029,-20.076,35.339,0.001,-0.355,0.0,0.482,0.0,-0.108,-0.155,35.34,7.578,-0.065,-6.295,90.753,359.749,359.589,14.686,"Curva 1: Strettissima, frenare.",3.0
89.507,0.029,-20.099,35.191,0.025,-0.769,0.0,0.285,0.0,0.13,-0.131,35.199,20.851,0.778,-7.008,91.036,359.75,1.249,15.204,"Curva 1: Strettissima, frenare.",3.02
90.208,0.029,-20.105,35.045,-0.003,-0.786,0.0,0.285,0.0,0.018,-0.146,35.054,0.983,-1.356,-7.293,91.255,359.766,-0.001,15.745,"Curva 1: Strettissima, frenare.",3.04
90.906,0.03,-20.111,34.875,0.015,-0.682,0.0,0.285,0.0,-0.112,-0.122,34.881,-5.023,0.829,-8.613,91.307,359.778,358.837,16.296,"Curva 1: Strettissima, frenare.",3.06
91.599,0.031,-20.142,34.674,0.024,-0.896,0.177,0.171,0.0,0.179,-0.104,34.685,10.944,0.338,-9.806,91.183,359.793,0.783,16.839,"Curva 1: Strettissima, frenare.",3.08
92.288,0.03,-20.159,34.475,-0.028,-0.86,0.177,0.171,0.0,0.191,-0.127,34.485,-1.67,-2.568,-10.035,91.109,359.839,0.577,17.398,"Curva 1: Strettissima, frenare.",3.1
92.974,0.031,-20.158,34.271,0.03,-0.595,0.332,0.097,0.0,-0.083,-0.068,34.276,-13.117,2.624,-10.425,91.135,359.84,358.675,17.972,"Curva 1: Strettissima, frenare.",3.12
93.654,0.031,-20.181,34.032,-0.008,-0.691,0.448,0.0,0.0,0.011,-0.091,34.039,5.036,-1.895,-11.875,91.144,359.861,0.151,18.537,"Curva 1: Strettissima, frenare.",3.14
94.329,0.031,-20.205,33.775,0.008,-0.851,0.448,0.0,0.0,0.12,-0.068,33.785,8.288,0.642,-12.657,91.237,359.876,1.336,19.105,"Curva 1: Strettissima, frenare.",3.16
95.0,0.032,-20.204,33.531,0.043,-0.696,0.448,0.0,0.0,-0.157,-0.035,33.538,-7.415,1.686,-12.391,91.459,359.87,359.221,19.688,"Curva 1: Strettissima, frenare.",3.18
95.665,0.032,-20.22,33.242,-0.012,-0.788,0.526,0.0,0.0,-0.147,-0.068,33.251,5.013,-2.707,-14.31,91.612,359.908,359.457,20.263,"Curva 1: Strettissima, frenare.",3.2
96.324,0.033,-20.254,32.978,0.044,-1.132,0.526,0.0,0.0,0.13,-0.018,32.997,17.666,2.394,-12.681,91.74,359.898,1.528,20.83,"Curva 1: Strettissima, frenare.",3.22
96.979,0.033,-20.267,32.711,-0.003,-1.198,0.729,0.0,0.0,0.035,-0.055,32.733,3.742,-2.351,-13.236,92.035,359.909,0.163,21.408,"Curva 1: Strettissima, frenare.",3.24
97.627,0.034,-20.28,32.402,0.039,-1.206,0.729,0.0,0.0,-0.119,-0.01,32.424,1.0,2.148,-15.424,92.341,359.918,358.871,21.984,"Curva 1: Strettissima, frenare.",3.26
98.269,0.035,-20.325,32.116,0.034,-1.626,1.0,0.0,0.0,0.15,-0.017,32.157,21.624,-0.695,-13.302,92.63,359.915,1.146,22.545,"Curva 1: Strettissima, frenare.",3.28
98.905,0.034,-20.356,31.813,-0.049,-1.814,1.0,0.0,0.0,0.122,-0.079,31.865,10.118,-4.311,-14.614,93.041,359.951,0.98,23.111,"Curva 1: Strettissima, frenare.",3.3
99.537,0.035,-20.377,31.541,0.067,-1.883,1.0,0.0,0.0,-0.099,0.025,31.597,4.185,5.88,-13.348,93.594,359.927,359.101,23.68,"Curva 1: Strettissima, frenare.",3.32
100.162,0.035,-20.426,31.25,0.01,-2.247,1.0,0.0,0.0,0.004,-0.029,31.331,19.217,-2.942,-13.217,94.105,359.929,0.377,24.236,"Curva 1: Strettissima, frenare.",3.34
100.78,0.035,-20.482,30.922,0.002,-2.657,1.0,0.0,0.0,0.106,-0.036,31.035,21.763,-0.962,-14.697,94.715,359.934,1.592,24.786,"Curva 1: Strettissima, frenare.",3.36
101.395,0.036,-20.519,30.649,0.059,-2.813,1.0,0.0,0.0,-0.124,0.012,30.778,9.026,2.904,-12.806,95.475,359.913,359.737,25.342,"Curva 1: Strettissima, frenare.",3.38
102.002,0.037,-20.575,30.327,0.026,-3.101,1.0,0.0,0.0,-0.172,-0.01,30.485,16.083,-1.557,-14.451,96.163,359.935,359.633,25.888,"Curva 1: Strettissima, frenare.",3.4
102.601,0.038,-20.653,30.007,0.03,-3.618,1.0,0.0,0.0,0.01,-0.007,30.224,27.544,-0.543,-12.828,96.856,359.931,1.568,26.422,"Curva 1: Strettissima, frenare.",3.42
103.198,0.037,-20.715,29.758,-0.024,-3.781,1.0,0.0,0.0,-0.172,-0.058,29.997,9.718,-2.733,-11.244,97.569,359.933,0.268,26.962,"Curva 1: Strettissima, frenare.",3.44
103.789,0.038,-20.782,29.444,0.024,-3.97,1.0,0.0,0.0,-0.326,-0.011,29.709,11.569,2.548,-14.184,98.307,359.941,359.287,27.497,"Curva 1: Strettissima, frenare.",3.46
104.37,0.038,-20.877,29.103,0.011,-4.479,1.0,0.0,0.0,-0.135,-0.014,29.446,27.818,-1.222,-12.848,99.012,359.946,1.255,28.016,"Curva 1: Strettissima, frenare.",3.48
104.947,0.037,-20.964,28.797,-0.051,-4.747,1.0,0.0,0.0,-0.172,-0.063,29.185,15.715,-3.335,-12.86,99.696,359.97,0.899,28.536,"Curva 1: Strettissima, frenare.",3.5
105.52,0.038,-21.048,28.491,0.071,-4.955,1.0,0.0,0.0,-0.299,0.043,28.917,12.928,6.212,-13.15,100.457,359.951,359.44,29.056,"Curva 1: Strettissima, frenare.",3.52
106.082,0.039,-21.157,28.142,0.03,-5.404,1.0,0.0,0.0,-0.149,0.008,28.655,25.399,-2.323,-12.772,101.168,359.954,0.643,29.561,"Curva 1: Strettissima, frenare.",3.54
106.638,0.039,-21.271,27.775,0.001,-5.799,1.0,0.0,0.0,-0.074,-0.014,28.373,23.081,-1.973,-13.873,101.942,359.967,1.337,30.061,"Curva 1: Strettissima, frenare.",3.56
107.192,0.04,-21.374,27.495,0.071,-5.977,1.0,0.0,0.0,-0.231,0.041,28.136,11.757,3.586,-11.669,102.734,359.94,359.742,30.564,"Curva 1: Strettissima, frenare.",3.58
107.736,0.041,-21.495,27.175,0.02,-6.279,1.0,0.0,0.0,-0.215,-0.006,27.89,18.379,-2.539,-12.043,103.452,359.947,359.942,31.055,"Curva 1: Strettissima, frenare.",3.6
108.272,0.041,-21.631,26.832,0.004,-6.683,1.0,0.0,0.0,-0.1,-0.021,27.652,23.803,-1.338,-11.665,104.192,359.944,1.331,31.537,"Curva 1: Strettissima, frenare.",3.62
108.807,0.04,-21.753,26.565,-0.016,-6.819,1.0,0.0,0.0,-0.261,-0.042,27.425,10.01,-1.032,-11.168,104.942,359.945,0.145,32.023,"Curva 1: Strettissima, frenare.",3.64
109.334,0.041,-21.884,26.237,0.003,-7.017,1.0,0.0,0.0,-0.336,-0.016,27.157,13.936,1.089,-13.098,105.681,359.964,359.613,32.502,"Curva 1: Strettissima, frenare.",3.66
109.851,0.041,-22.036,25.871,0.0,-7.41,1.0,0.0,0.0,-0.197,-0.008,26.911,24.041,-0.639,-12.015,106.403,359.976,1.109,32.967,"Curva 1: Strettissima, frenare.",3.68
110.364,0.04,-22.179,25.568,-0.031,-7.599,1.0,0.0,0.0,-0.26,-0.032,26.672,13.46,-1.666,-11.705,107.11,359.991,0.609,33.434,"Curva 1: Strettissima, frenare.",3.7
110.873,0.041,-22.323,25.245,0.049,-7.807,1.0,0.0,0.0,-0.31,0.038,26.423,14.819,4.084,-12.173,107.855,359.98,359.717,33.898,"Curva 1: Strettissima, frenare.",3.72
111.371,0.042,-22.486,24.875,0.032,-8.154,1.0,0.0,0.0,-0.193,0.024,26.177,22.331,-1.117,-12.02,108.571,359.978,0.664,34.349,"Curva 1: Strettissima, frenare.",3.74
111.862,0.042,-22.65,24.503,0.009,-8.447,1.0,0.0,0.0,-0.15,0.005,25.917,19.958,-1.482,-12.699,109.352,359.985,0.983,34.795,"Curva 1: Strettissima, frenare.",3.76
112.351,0.043,-22.81,24.201,0.061,-8.619,1.0,0.0,0.0,-0.248,0.045,25.689,13.278,2.6,-11.198,110.157,359.966,359.898,35.242,"Curva 1: Strettissima, frenare.",3.78
112.83,0.044,-22.982,23.868,0.024,-8.857,1.0,0.0,0.0,-0.246,0.01,25.457,17.055,-1.867,-11.322,110.913,359.969,0.114,35.679,"Curva 1: Strettissima, frenare.",3.8
113.301,0.044,-23.164,23.515,-0.002,-9.141,1.0,0.0,0.0,-0.193,-0.012,25.228,19.715,-1.642,-11.155,111.681,359.971,0.984,36.108,"Curva 1: Strettissima, frenare.",3.82
113.77,0.043,-23.339,23.225,-0.009,-9.282,1.0,0.0,0.0,-0.297,-0.021,25.009,12.017,-0.375,-10.69,112.465,359.971,0.226,36.538,"Curva 1: Strettissima, frenare.",3.84
114.231,0.044,-23.519,22.903,0.004,-9.457,1.0,0.0,0.0,-0.349,-0.006,24.776,14.406,0.695,-11.36,113.245,359.978,359.89,36.961,"Curva 1: Strettissima, frenare.",3.86
114.682,0.044,-23.713,22.545,-0.006,-9.723,1.0,0.0,0.0,-0.293,-0.009,24.551,19.402,-0.797,-10.905,114.011,359.986,0.774,37.375,"Curva 1: Strettissima, frenare.",3.88
115.129,0.043,-23.905,22.201,-0.016,-9.935,1.0,0.0,0.0,-0.302,-0.014,24.321,16.839,-0.675,-11.172,114.82,-0.005,0.681,37.786,"Curva 1: Strettissima, frenare.",3.9
115.572,0.044,-24.096,21.885,0.04,-10.101,1.0,0.0,0.0,-0.364,0.033,24.101,14.355,2.806,-10.663,115.642,359.985,359.936,38.195,"Curva 1: Strettissima, frenare.",3.92
116.005,0.044,-24.299,21.532,0.023,-10.326,1.0,0.0,0.0,-0.338,0.02,23.878,17.902,-0.928,-10.792,116.432,359.987,0.359,38.593,"Curva 1: Strettissima, frenare.",3.94
116.429,0.045,-24.506,21.16,0.007,-10.556,1.0,0.0,0.0,-0.306,0.009,23.645,18.703,-1.082,-11.266,117.254,359.994,0.848,38.986,"Curva 1: Strettissima, frenare.",3.96
116.852,0.045,-24.711,20.851,0.025,-10.718,1.0,0.0,0.0,-0.361,0.02,23.442,14.453,0.819,-9.815,118.086,359.985,0.21,39.378,"Curva 1: Strettissima, frenare.",3.98
117.266,0.046,-24.921,20.523,0.023,-10.876,1.0,0.0,0.0,-0.396,0.017,23.223,14.841,-0.084,-10.561,118.898,359.985,0.031,39.763,"Curva 1: Strettissima, frenare.",4.0
117.671,0.046,-25.14,20.172,0.001,-11.084,1.0,0.0,0.0,-0.367,0.0,23.014,17.708,-1.319,-10.056,119.701,359.988,0.68,40.139,"Curva 1: Strettissima, frenare.",4.02
118.072,0.045,-25.358,19.841,-0.013,-11.254,1.0,0.0,0.0,-0.386,-0.013,22.808,15.702,-0.856,-9.942,120.532,359.992,0.552,40.513,"Curva 1: Strettissima, frenare.",4.04
118.468,0.046,-25.577,19.529,0.018,-11.389,1.0,0.0,0.0,-0.44,0.013,22.603,13.89,1.553,-9.843,121.365,359.987,0.017,40.884,"Curva 1: Strettissima, frenare.",4.06
118.854,0.046,-25.804,19.185,0.004,-11.556,1.0,0.0,0.0,-0.434,0.004,22.392,16.244,-0.807,-10.11,122.173,359.994,0.357,41.247,"Curva 1: Strettissima, frenare.",4.08
119.233,0.046,-26.034,18.827,-0.007,-11.73,1.0,0.0,0.0,-0.417,0.0,22.178,17.056,-0.727,-10.257,123.004,0.003,0.711,41.603,"Curva 1: Strettissima, frenare.",4.1
119.609,0.046,-26.263,18.505,0.014,-11.869,1.0,0.0,0.0,-0.45,0.016,21.979,14.71,0.953,-9.51,123.848,0.0,0.258,41.958,"Curva 1: Strettissima, frenare.",4.12
119.977,0.046,-26.496,18.168,0.022,-12.001,1.0,0.0,0.0,-0.47,0.023,21.769,15.029,0.367,-10.076,124.684,0.002,0.127,42.306,"Curva 1: Strettissima, frenare.",4.14
120.335,0.047,-26.736,17.812,0.009,-12.165,1.0,0.0,0.0,-0.447,0.015,21.565,17.0,-0.835,-9.756,125.52,0.005,0.589,42.646,"Curva 1: Strettissima, frenare.",4.16
120.69,0.047,-26.976,17.477,0.002,-12.307,1.0,0.0,0.0,-0.457,0.007,21.371,15.65,-0.483,-9.238,126.378,0.003,0.506,42.984,"Curva 1: Strettissima, frenare.",4.18
121.039,0.047,-27.216,17.157,0.021,-12.42,1.0,0.0,0.0,-0.495,0.021,21.175,14.191,0.951,-9.317,127.24,-0.003,0.117,43.318,"Curva 1: Strettissima, frenare.",4.2
121.379,0.047,-27.462,16.815,0.008,-12.547,1.0,0.0,0.0,-0.498,0.011,20.974,15.563,-0.75,-9.56,128.09,0.001,0.341,43.644,"Curva 1: Strettissima, frenare.",4.22
121.712,0.047,-27.711,16.469,-0.005,-12.68,1.0,0.0,0.0,-0.493,0.003,20.779,16.027,-0.804,-9.263,128.954,0.006,0.595,43.964,"Curva 1: Strettissima, frenare.",4.24
122.041,0.047,-27.96,16.149,0.006,-12.788,1.0,0.0,0.0,-0.522,0.01,20.593,14.381,0.457,-8.803,129.828,0.004,0.286,44.283,"Curva 1: Strettissima, frenare.",4.26
122.362,0.048,-28.211,15.819,0.012,-12.886,1.0,0.0,0.0,-0.545,0.016,20.396,14.479,0.24,-9.357,130.697,0.006,0.18,44.595,"Curva 1: Strettissima, frenare.",4.28
122.675,0.048,-28.467,15.474,0.002,-13.002,1.0,0.0,0.0,-0.539,0.011,20.204,15.771,-0.618,-9.08,131.566,0.011,0.498,44.9,"Curva 1: Strettissima, frenare.",4.3
122.983,0.048,-28.723,15.143,0.0,-13.108,1.0,0.0,0.0,-0.548,0.008,20.021,15.064,-0.239,-8.593,132.448,0.011,0.463,45.202,"Curva 1: Strettissima, frenare.",4.32
123.286,0.048,-28.98,14.822,0.015,-13.194,1.0,0.0,0.0,-0.574,0.02,19.836,14.171,0.729,-8.713,133.334,0.007,0.195,45.5,"Curva 1: Strettissima, frenare.",4.34
123.581,0.048,-29.241,14.483,0.011,-13.285,1.0,0.0,0.0,-0.579,0.017,19.645,15.056,-0.321,-9.002,134.216,0.009,0.326,45.791,"Curva 1: Strettissima, frenare.",4.36
123.868,0.048,-29.504,14.142,0.003,-13.379,1.0,0.0,0.0,-0.577,0.012,19.46,15.391,-0.513,-8.679,135.109,0.011,0.505,46.076,"Curva 1: Strettissima, frenare.",4.38
124.151,0.048,-29.766,13.822,0.01,-13.459,1.0,0.0,0.0,-0.597,0.015,19.283,14.294,0.246,-8.27,136.011,0.007,0.308,46.359,"Curva 1: Strettissima, frenare.",4.4
124.427,0.049,-30.031,13.497,0.014,-13.527,1.0,0.0,0.0,-0.617,0.018,19.099,14.194,0.134,-8.622,136.913,0.006,0.218,46.636,"Curva 1: Strettissima, frenare.",4.42
124.695,0.049,-30.299,13.16,0.005,-13.603,1.0,0.0,0.0,-0.618,0.012,18.917,15.019,-0.559,-8.49,137.818,0.008,0.424,46.907,"Curva 1: Strettissima, frenare.",4.44
124.958,0.049,-30.567,12.834,0.001,-13.674,1.0,0.0,0.0,-0.628,0.008,18.743,14.625,-0.269,-8.085,138.735,0.008,0.419,47.174,"Curva 1: Strettissima, frenare.",4.46
125.215,0.049,-30.835,12.516,0.011,-13.732,1.0,0.0,0.0,-0.651,0.015,18.568,13.988,0.415,-8.084,139.66,0.004,0.235,47.437,"Curva 1: Strettissima, frenare.",4.48
125.465,0.049,-31.106,12.188,0.008,-13.787,1.0,0.0,0.0,-0.662,0.014,18.39,14.394,-0.192,-8.275,140.584,0.007,0.301,47.694,"Curva 1: Strettissima, frenare.",4.5
125.707,0.049,-31.379,11.857,0.003,-13.844,1.0,0.0,0.0,-0.666,0.012,18.216,14.74,-0.399,-8.054,141.516,0.012,0.436,47.945,"Curva 1: Strettissima, frenare.",4.52
125.945,0.049,-31.651,11.539,0.007,-13.893,1.0,0.0,0.0,-0.683,0.014,18.047,14.128,0.105,-7.756,142.456,0.013,0.324,48.193,"Curva 1: Strettissima, frenare.",4.54
126.176,0.05,-31.924,11.221,0.011,-13.931,1.0,0.0,0.0,-0.702,0.018,17.875,13.876,0.153,-7.932,143.397,0.015,0.24,48.436,"Curva 1: Strettissima, frenare.",4.56
126.4,0.05,-32.199,10.897,0.005,-13.97,1.0,0.0,0.0,-0.709,0.015,17.703,14.311,-0.381,-7.879,144.34,0.019,0.364,48.673,"Curva 1: Strettissima, frenare.",4.58
126.618,0.05,-32.475,10.579,0.002,-14.006,1.0,0.0,0.0,-0.721,0.013,17.538,14.085,-0.258,-7.552,145.291,0.021,0.384,48.906,"Curva 1: Strettissima, frenare.",4.6
126.831,0.05,-32.75,10.273,0.007,-14.033,1.0,0.0,0.0,-0.744,0.016,17.375,13.459,0.201,-7.422,146.244,0.02,0.254,49.135,"Curva 1: Strettissima, frenare.",4.62
127.037,0.05,-33.027,9.965,0.006,-14.052,1.0,0.0,0.0,-0.761,0.016,17.21,13.475,-0.144,-7.538,147.192,0.022,0.273,49.359,"Curva 1: Strettissima, frenare.",4.64
127.237,0.05,-33.304,9.654,0.0,-14.072,1.0,0.0,0.0,-0.771,0.013,17.047,13.726,-0.367,-7.372,148.138,0.025,0.379,49.577,"Curva 1: Strettissima, frenare.",4.66
127.431,0.05,-33.581,9.352,0.001,-14.086,1.0,0.0,0.0,-0.787,0.013,16.889,13.292,-0.032,-7.139,149.086,0.025,0.32,49.792,"Curva 1: Strettissima, frenare.",4.68
127.62,0.05,-33.859,9.058,0.005,-14.09,1.0,0.0,0.0,-0.807,0.016,16.731,12.858,0.138,-7.154,150.027,0.026,0.239,50.003,"Curva 1: Strettissima, frenare.",4.7
127.802,0.05,-34.137,8.764,0.002,-14.09,1.0,0.0,0.0,-0.821,0.015,16.573,12.824,-0.219,-7.149,150.953,0.029,0.305,50.208,"Curva 1: Strettissima, frenare.",4.72
127.978,0.05,-34.415,8.477,0.0,-14.087,1.0,0.0,0.0,-0.833,0.013,16.42,12.64,-0.196,-6.893,151.868,0.03,0.344,50.409,"Curva 1: Strettissima, frenare.",4.74
128.15,0.05,-34.692,8.203,0.003,-14.076,1.0,0.0,0.0,-0.852,0.015,16.269,11.885,0.102,-6.772,152.763,0.029,0.25,50.606,"Curva 1: Strettissima, frenare.",4.76
128.315,0.05,-34.97,7.93,0.003,-14.058,1.0,0.0,0.0,-0.862,0.015,16.117,11.86,-0.018,-6.863,153.637,0.029,0.242,50.799,"Curva 1: Strettissima, frenare.",4.78
128.474,0.05,-35.248,7.652,0.001,-14.04,1.0,0.0,0.0,-0.861,0.014,15.966,12.156,-0.205,-6.82,154.495,0.03,0.328,50.987,"Curva 1: Strettissima, frenare.",4.8
128.629,0.05,-35.525,7.379,0.002,-14.017,1.0,0.0,0.0,-0.858,0.014,15.817,11.927,-0.029,-6.711,155.343,0.029,0.303,51.171,"Curva 1: Strettissima, frenare.",4.82
128.778,0.051,-35.801,7.114,0.005,-13.987,1.0,0.0,0.0,-0.857,0.016,15.669,11.497,0.13,-6.722,156.173,0.028,0.226,51.352,"Curva 1: Strettissima, frenare.",4.84
128.921,0.051,-36.078,6.852,0.003,-13.952,1.0,0.0,0.0,-0.851,0.015,15.52,11.348,-0.139,-6.752,156.98,0.028,0.258,51.528,"Curva 1: Strettissima, frenare.",4.86
129.059,0.051,-36.353,6.591,0.001,-13.915,1.0,0.0,0.0,-0.837,0.013,15.374,11.393,-0.196,-6.66,157.772,0.029,0.312,51.7,"Curva 1: Strettissima, frenare.",4.88
129.192,0.051,-36.628,6.335,0.002,-13.873,1.0,0.0,0.0,-0.824,0.014,15.229,11.137,0.008,-6.601,158.551,0.029,0.265,51.868,"Curva 1: Strettissima, frenare.",4.9
129.32,0.051,-36.902,6.082,0.004,-13.826,1.0,0.0,0.0,-0.806,0.015,15.083,11.047,0.033,-6.689,159.318,0.029,0.235,52.032,"Curva 1: Strettissima, frenare.",4.92
129.443,0.051,-37.176,5.825,0.003,-13.776,1.0,0.0,0.0,-0.781,0.015,14.936,11.2,-0.11,-6.725,160.073,0.031,0.284,52.192,"Curva 1: Strettissima, frenare.",4.94
129.56,0.051,-37.448,5.572,0.003,-13.723,1.0,0.0,0.0,-0.755,0.015,14.792,11.1,-0.055,-6.669,160.823,0.034,0.29,52.348,"Curva 1: Strettissima, frenare.",4.96
129.673,0.051,-37.719,5.326,0.005,-13.664,1.0,0.0,0.0,-0.731,0.017,14.647,10.743,0.076,-6.667,161.566,0.036,0.235,52.501,"Curva 1: Strettissima, frenare.",4.98
129.781,0.051,-37.989,5.082,0.005,-13.601,1.0,0.0,0.0,-0.706,0.017,14.503,10.635,-0.069,-6.692,162.298,0.037,0.24,52.649,"Curva 1: Strettissima, frenare.",5.0
129.883,0.051,-38.258,4.842,0.003,-13.536,1.0,0.0,0.0,-0.679,0.016,14.36,10.514,-0.16,-6.628,163.022,0.039,0.272,52.794,"Curva 1: Strettissima, frenare.",5.02
129.982,0.051,-38.525,4.601,0.003,-13.467,1.0,0.0,0.0,-0.648,0.016,14.217,10.643,-0.062,-6.682,163.749,0.04,0.268,52.934,"Curva 1: Strettissima, frenare.",5.04
130.075,0.051,-38.791,4.348,0.004,-13.396,1.0,0.0,0.0,-0.608,0.017,14.071,11.221,0.0,-6.804,164.492,0.042,0.274,53.071,"Curva 1: Strettissima, frenare.",5.06
130.163,0.051,-39.056,4.096,0.005,-13.321,1.0,0.236,0.0,-0.569,0.018,13.925,11.222,-0.01,-6.845,165.25,0.044,0.276,53.204,"Curva 1: Strettissima, frenare.",5.08
130.246,0.052,-39.319,3.846,0.006,-13.241,1.0,0.236,0.0,-0.534,0.019,13.778,11.196,-0.022,-6.899,166.024,0.046,0.27,53.334,"Curva 1: Strettissima, frenare.",5.1
130.325,0.052,-39.581,3.593,0.005,-13.16,1.0,0.236,0.0,-0.497,0.019,13.633,11.372,-0.066,-6.814,166.817,0.048,0.279,53.459,"Curva 1: Strettissima, frenare.",5.12
130.399,0.052,-39.841,3.346,0.005,-13.079,1.0,0.236,0.0,-0.465,0.018,13.492,11.178,-0.094,-6.613,167.624,0.047,0.272,53.58,"Curva 1: Strettissima, frenare.",5.14
130.468,0.052,-40.099,3.106,0.004,-12.998,1.0,0.302,0.0,-0.437,0.016,13.357,10.944,-0.091,-6.385,168.435,0.044,0.256,53.698,"Curva 1: Strettissima, frenare.",5.16
130.532,0.052,-40.356,2.862,0.003,-12.915,1.0,0.389,0.0,-0.404,0.014,13.222,11.21,-0.13,-6.364,169.254,0.042,0.278,53.811,"Curva 1: Strettissima, frenare.",5.18
130.591,0.052,-40.612,2.609,0.002,-12.832,1.0,0.549,0.0,-0.361,0.013,13.09,11.745,-0.102,-6.243,170.085,0.039,0.311,53.92,"Curva 1: Strettissima, frenare.",5.2
130.646,0.052,-40.865,2.361,0.004,-12.751,1.0,0.549,0.0,-0.32,0.014,12.964,11.608,0.03,-5.968,170.924,0.037,0.281,54.026,"Curva 1: Strettissima, frenare.",5.22
130.695,0.052,-41.118,2.116,0.005,-12.672,1.0,0.549,0.0,-0.277,0.014,12.845,11.589,0.003,-5.649,171.759,0.033,0.264,54.127,"Curva 1: Strettissima, frenare.",5.24
130.74,0.052,-41.369,1.871,0.004,-12.596,1.0,0.829,0.0,-0.229,0.011,12.733,11.636,-0.124,-5.334,172.58,0.029,0.292,54.224,"Curva 1: Strettissima, frenare.",5.26
130.779,0.052,-41.618,1.632,0.003,-12.527,1.0,0.829,0.0,-0.178,0.009,12.632,11.464,-0.104,-4.807,173.385,0.023,0.291,54.317,"Curva 1: Strettissima, frenare.",5.28
130.814,0.052,-41.867,1.4,0.003,-12.47,1.0,0.829,0.0,-0.126,0.006,12.548,11.277,-0.042,-4.015,174.171,0.012,0.261,54.407,"Curva 1: Strettissima, frenare.",5.3
130.844,0.052,-42.115,1.173,0.002,-12.424,1.0,0.829,0.0,-0.071,0.002,12.479,11.115,-0.102,-3.294,174.937,-0.002,0.263,54.492,"Curva 1: Strettissima, frenare.",5.32
130.87,0.052,-42.362,0.954,0.0,-12.393,1.0,0.829,0.0,-0.018,-0.004,12.43,10.78,-0.154,-2.366,175.681,359.983,0.268,54.574,"Curva 1: Strettissima, frenare.",5.34
130.891,0.052,-42.61,0.748,-0.001,-12.379,1.0,0.892,0.0,0.03,-0.009,12.401,10.231,-0.085,-1.386,176.405,359.965,0.24,54.653,"Curva 1: Strettissima, frenare.",5.36
130.908,0.051,-42.857,0.551,-0.002,-12.377,1.0,1.0,0.0,0.073,-0.013,12.389,9.847,-0.077,-0.588,177.113,359.949,0.226,54.729,"Curva 1: Strettissima, frenare.",5.38
130.922,0.051,-43.104,0.359,-0.003,-12.386,1.0,1.0,0.0,0.114,-0.017,12.39,9.58,-0.103,0.072,177.809,359.936,0.237,54.802,"Curva 1: Strettissima, frenare.",5.4
130.931,0.051,-43.352,0.179,-0.003,-12.412,1.0,1.0,0.0,0.146,-0.02,12.412,9.034,-0.034,1.063,178.497,359.924,0.217,54.873,"Curva 1: Strettissima, frenare.",5.42
130.938,0.051,-43.601,0.009,-0.002,-12.453,1.0,1.0,0.0,0.169,-0.022,12.452,8.558,0.002,1.957,179.183,359.912,0.192,54.941,"Curva 1: Strettissima, frenare.",5.44
130.94,0.051,-43.852,-0.157,-0.003,-12.508,1.0,1.0,0.0,0.184,-0.025,12.507,8.282,-0.057,2.705,179.876,359.899,0.201,55.008,"Curva 1: Strettissima, frenare.",5.46
130.94,0.051,-44.103,-0.317,-0.003,-12.573,1.0,1.0,0.0,0.19,-0.028,12.576,7.96,-0.049,3.36,180.577,359.888,0.202,55.073,"Curva 1: Strettissima, frenare.",5.48
130.937,0.051,-44.356,-0.472,-0.002,-12.646,1.0,1.0,0.0,0.188,-0.03,12.653,7.693,0.004,3.809,181.286,359.878,0.182,55.137,"Curva 1: Strettissima, frenare.",5.5
130.931,0.05,-44.611,-0.628,-0.002,-12.723,1.0,1.0,0.0,0.182,-0.031,12.738,7.638,-0.024,4.145,182.005,359.872,0.184,55.2,"Curva 1: Strettissima, frenare.",5.52
130.921,0.05,-44.867,-0.783,-0.002,-12.805,1.0,1.0,0.0,0.173,-0.033,12.828,7.583,-0.049,4.456,182.73,359.868,0.195,55.261,"Curva 1: Strettissima, frenare.",5.54
130.909,0.05,-45.125,-0.94,-0.002,-12.89,1.0,1.0,0.0,0.159,-0.033,12.923,7.536,-0.017,4.696,183.462,359.865,0.189,55.32,"Curva 1: Strettissima, frenare.",5.56
130.893,0.05,-45.385,-1.099,-0.002,-12.975,1.0,1.0,0.0,0.145,-0.033,13.02,7.614,-0.023,4.816,184.2,359.863,0.186,55.379,"Curva 1: Strettissima, frenare.",5.58
130.874,0.05,-45.647,-1.261,-0.002,-13.059,1.0,1.0,0.0,0.131,-0.034,13.119,7.738,-0.045,4.894,184.945,359.862,0.197,55.436,"Curva 1: Strettissima, frenare.",5.6
130.852,0.05,-45.91,-1.427,-0.002,-13.143,1.0,1.0,0.0,0.115,-0.034,13.219,7.818,-0.028,4.995,185.697,359.861,0.2,55.491,"Curva 1: Strettissima, frenare.",5.62
130.827,0.05,-46.176,-1.595,-0.002,-13.225,1.0,1.0,0.0,0.098,-0.035,13.321,7.901,-0.031,5.053,186.455,359.859,0.196,55.545,"Curva 1: Strettissima, frenare.",5.64
130.798,0.05,-46.443,-1.769,-0.002,-13.306,1.0,1.0,0.0,0.082,-0.036,13.422,8.105,-0.051,5.075,187.221,359.857,0.205,55.598,"Curva 1: Strettissima, frenare.",5.66
130.766,0.05,-46.711,-1.946,-0.002,-13.384,1.0,1.0,0.0,0.066,-0.036,13.525,8.26,-0.056,5.129,187.994,359.855,0.212,55.649,"Curva 1: Strettissima, frenare.",5.68
130.73,0.05,-46.981,-2.128,-0.002,-13.461,1.0,1.0,0.0,0.05,-0.037,13.628,8.39,-0.027,5.176,188.774,359.853,0.21,55.698,"Curva 1: Strettissima, frenare.",5.7
130.69,0.05,-47.253,-2.313,-0.002,-13.536,1.0,1.0,0.0,0.033,-0.038,13.732,8.502,-0.05,5.217,189.561,359.851,0.211,55.746,"Curva 1: Strettissima, frenare.",5.72
130.647,0.05,-47.526,-2.5,-0.002,-13.609,1.0,1.0,0.0,0.014,-0.038,13.836,8.543,-0.055,5.271,190.351,359.849,0.212,55.792,"Curva 1: Strettissima, frenare.",5.74
130.6,0.05,-47.801,-2.691,-0.002,-13.68,1.0,1.0,0.0,-0.004,-0.039,13.942,8.691,-0.057,5.324,191.146,359.848,0.22,55.836,"Curva 1: Strettissima, frenare.",5.76
130.549,0.05,-48.078,-2.886,-0.002,-13.748,1.0,1.0,0.0,-0.022,-0.04,14.048,8.807,-0.059,5.374,191.945,359.846,0.223,55.878,"Curva 1: Strettissima, frenare.",5.78
130.494,0.05,-48.355,-3.083,-0.002,-13.815,1.0,1.0,0.0,-0.041,-0.041,14.154,8.888,-0.037,5.41,192.746,359.844,0.221,55.919,"Curva 1: Strettissima, frenare.",5.8
130.435,0.05,-48.635,-3.285,-0.002,-13.878,1.0,1.0,0.0,-0.059,-0.041,14.261,9.048,-0.057,5.445,193.552,359.842,0.226,55.957,"Curva 1: Strettissima, frenare.",5.82
130.372,0.05,-48.915,-3.489,-0.002,-13.939,1.0,1.0,0.0,-0.077,-0.042,14.369,9.147,-0.054,5.492,194.36,359.84,0.232,55.994,"Curva 1: Strettissima, frenare.",5.84
130.305,0.049,-49.197,-3.697,-0.002,-13.998,1.0,1.0,0.0,-0.095,-0.042,14.477,9.258,-0.039,5.535,195.171,359.838,0.231,56.029,"Curva 1: Strettissima, frenare.",5.86
130.234,0.049,-49.48,-3.908,-0.002,-14.053,1.0,1.0,0.0,-0.113,-0.043,14.586,9.408,-0.056,5.565,195.985,359.837,0.235,56.061,"Curva 1: Strettissima, frenare.",5.88
130.158,0.049,-49.764,-4.123,-0.002,-14.105,1.0,1.0,0.0,-0.131,-0.044,14.694,9.522,-0.066,5.588,196.803,359.835,0.239,56.092,"Curva 1: Strettissima, frenare.",5.9
130.078,0.049,-50.049,-4.34,-0.002,-14.154,1.0,1.0,0.0,-0.149,-0.045,14.803,9.625,-0.045,5.622,197.623,359.833,0.24,56.12,"Curva 1: Strettissima, frenare.",5.92
129.994,0.049,-50.335,-4.561,-0.002,-14.199,1.0,1.0,0.0,-0.167,-0.045,14.913,9.733,-0.066,5.644,198.448,359.831,0.242,56.147,"Curva 1: Strettissima, frenare.",5.94
129.905,0.049,-50.622,-4.785,-0.002,-14.241,1.0,1.0,0.0,-0.185,-0.046,15.022,9.893,-0.072,5.669,199.276,359.83,0.249,56.17,"Curva 1: Strettissima, frenare.",5.96
129.811,0.049,-50.91,-5.012,-0.002,-14.279,1.0,1.0,0.0,-0.202,-0.047,15.131,10.022,-0.066,5.682,200.109,359.828,0.251,56.192,"Curva 1: Strettissima, frenare.",5.98
129.713,0.049,-51.199,-5.243,-0.002,-14.312,1.0,1.0,0.0,-0.22,-0.047,15.24,10.166,-0.051,5.689,200.947,359.827,0.253,56.212,"Curva 1: Strettissima, frenare.",6.0
129.61,0.049,-51.489,-5.476,-0.002,-14.342,1.0,1.0,0.0,-0.239,-0.048,15.35,10.262,-0.058,5.717,201.789,359.825,0.255,56.229,"Curva 1: Strettissima, frenare.",6.02
129.503,0.049,-51.779,-5.71,-0.002,-14.369,1.0,1.0,0.0,-0.26,-0.049,15.459,10.293,-0.069,5.734,202.635,359.823,0.255,56.243,"Curva 1: Strettissima, frenare.",6.04
129.391,0.049,-52.069,-5.947,-0.003,-14.391,1.0,1.0,0.0,-0.281,-0.05,15.569,10.407,-0.079,5.752,203.484,359.822,0.259,56.255,"Curva 1: Strettissima, frenare.",6.06
129.274,0.049,-52.361,-6.185,-0.003,-14.41,1.0,1.0,0.0,-0.302,-0.05,15.678,10.5,-0.071,5.761,204.336,359.821,0.262,56.265,"Curva 1: Strettissima, frenare.",6.08
129.152,0.049,-52.652,-6.427,-0.003,-14.424,1.0,1.0,0.0,-0.324,-0.051,15.788,10.61,-0.063,5.78,205.192,359.819,0.263,56.272,"Curva 1: Strettissima, frenare.",6.1
129.025,0.049,-52.944,-6.67,-0.003,-14.434,1.0,1.0,0.0,-0.346,-0.052,15.897,10.728,-0.073,5.777,206.051,359.818,0.268,56.277,"Curva 1: Strettissima, frenare.",6.12
128.894,0.049,-53.236,-6.916,-0.003,-14.438,1.0,1.0,0.0,-0.369,-0.052,16.005,10.868,-0.062,5.776,206.914,359.817,0.271,56.279,"Curva 1: Strettissima, frenare.",6.14
128.757,0.049,-53.528,-7.165,-0.002,-14.438,1.0,1.0,0.0,-0.391,-0.052,16.113,10.996,-0.066,5.773,207.783,359.815,0.274,56.278,"Curva 1: Strettissima, frenare.",6.16
128.616,0.048,-53.82,-7.416,-0.002,-14.432,1.0,1.0,0.0,-0.414,-0.053,16.22,11.143,-0.062,5.762,208.657,359.814,0.276,56.275,"Curva 1: Strettissima, frenare.",6.18
128.469,0.048,-54.113,-7.668,-0.002,-14.422,1.0,1.0,0.0,-0.439,-0.054,16.328,11.227,-0.076,5.768,209.537,359.813,0.278,56.269,"Curva 1: Strettissima, frenare.",6.2
128.317,0.048,-54.405,-7.92,-0.002,-14.407,1.0,1.0,0.0,-0.465,-0.054,16.434,11.26,-0.082,5.761,210.421,359.811,0.277,56.261,"Curva 1: Strettissima, frenare.",6.22
128.16,0.048,-54.696,-8.175,-0.003,-14.387,1.0,1.0,0.0,-0.493,-0.055,16.54,11.374,-0.088,5.763,211.31,359.811,0.282,56.249,"Curva 1: Strettissima, frenare.",6.24
127.998,0.048,-54.987,-8.43,-0.003,-14.363,1.0,1.0,0.0,-0.521,-0.056,16.646,11.487,-0.078,5.766,212.204,359.809,0.286,56.235,"Curva 1: Strettissima, frenare.",6.26
127.831,0.048,-55.278,-8.688,-0.003,-14.332,1.0,1.0,0.0,-0.55,-0.056,16.751,11.592,-0.081,5.756,213.103,359.808,0.287,56.218,"Curva 1: Strettissima, frenare.",6.28
127.659,0.048,-55.569,-8.947,-0.003,-14.296,1.0,1.0,0.0,-0.58,-0.057,16.855,11.748,-0.075,5.743,214.007,359.807,0.291,56.198,"Curva 1: Strettissima, frenare.",6.3
127.481,0.048,-55.858,-9.207,-0.003,-14.254,1.0,1.0,0.0,-0.61,-0.057,16.958,11.889,-0.072,5.731,214.919,359.805,0.295,56.175,"Curva 1: Strettissima, frenare.",6.32
127.298,0.048,-56.147,-9.469,-0.002,-14.206,1.0,1.0,0.0,-0.641,-0.057,17.06,12.025,-0.068,5.724,215.837,359.804,0.299,56.149,"Curva 1: Strettissima, frenare.",6.34
127.11,0.048,-56.435,-9.732,-0.002,-14.153,1.0,1.0,0.0,-0.674,-0.058,17.163,12.11,-0.075,5.732,216.762,359.803,0.298,56.12,"Curva 1: Strettissima, frenare.",6.36
126.917,0.048,-56.721,-9.994,-0.002,-14.095,1.0,1.0,0.0,-0.71,-0.058,17.264,12.145,-0.073,5.721,217.692,359.801,0.297,56.088,"Curva 1: Strettissima, frenare.",6.38
126.718,0.048,-57.007,-10.256,-0.003,-14.033,1.0,1.0,0.0,-0.747,-0.059,17.365,12.193,-0.118,5.756,218.626,359.8,0.301,56.053,"Curva 1: Strettissima, frenare.",6.4
126.514,0.048,-57.291,-10.517,-0.003,-13.967,0.845,1.0,0.0,-0.788,-0.06,17.466,12.142,-0.104,5.75,219.562,359.799,0.296,56.015,"Curva 1: Strettissima, frenare.",6.42
126.304,0.048,-57.575,-10.777,-0.004,-13.897,0.845,1.0,0.0,-0.83,-0.061,17.566,12.138,-0.107,5.8,220.498,359.798,0.294,55.974,"Curva 1: Strettissima, frenare.",6.44
126.09,0.048,-57.856,-11.034,-0.004,-13.825,0.845,1.0,0.0,-0.875,-0.062,17.667,12.059,-0.109,5.803,221.43,359.796,0.293,55.93,"Curva 1: Strettissima, frenare.",6.46
125.87,0.047,-58.137,-11.294,-0.004,-13.746,0.845,1.0,0.0,-0.917,-0.063,17.767,12.235,-0.1,5.825,222.36,359.795,0.302,55.882,"Curva 1: Strettissima, frenare.",6.48
125.645,0.047,-58.415,-11.554,-0.004,-13.661,0.845,1.0,0.0,-0.957,-0.063,17.866,12.408,-0.064,5.837,223.29,359.794,0.31,55.832,"Curva 1: Strettissima, frenare.",6.5
125.414,0.048,-58.692,-11.825,0.003,-13.556,0.719,1.0,0.0,-0.975,-0.055,17.962,13.348,0.236,5.669,224.204,359.8,0.317,55.778,"Curva 1: Strettissima, frenare.",6.52
125.179,0.048,-58.967,-12.086,0.023,-13.479,0.719,1.0,0.0,-1.02,-0.031,18.075,11.934,0.965,6.529,225.109,359.821,0.151,55.722,"Curva 1: Strettissima, frenare.",6.54
124.937,0.048,-59.24,-12.331,-0.017,-13.419,0.593,1.0,0.0,-1.076,-0.075,18.192,10.651,-2.097,6.729,225.964,359.8,0.318,55.661,"Curva 1: Strettissima, frenare.",6.56
124.69,0.047,-59.513,-12.563,-0.026,-13.357,0.593,1.0,0.0,-1.125,-0.09,18.302,10.229,-0.494,6.322,226.762,359.78,0.3,55.598,"Curva 1: Strettissima, frenare.",6.58
124.44,0.047,-59.785,-12.755,-0.018,-13.31,0.545,1.0,0.0,-1.197,-0.09,18.396,8.214,0.34,5.494,227.502,359.772,0.077,55.535,"Curva 1: Strettissima, frenare.",6.6
124.184,0.046,-60.054,-12.98,-0.018,-13.258,0.545,1.0,0.0,-1.228,-0.086,18.514,9.439,-0.034,6.674,228.186,359.774,0.203,55.467,"Curva 1: Strettissima, frenare.",6.62
123.923,0.046,-60.321,-13.203,-0.014,-13.209,0.545,1.0,0.0,-1.24,-0.079,18.635,9.176,0.085,6.788,228.793,359.78,0.326,55.397,"Curva 1: Strettissima, frenare.",6.64
123.658,0.046,-60.589,-13.427,-0.001,-13.166,0.545,1.0,0.0,-1.234,-0.07,18.765,8.933,0.589,7.081,229.325,359.779,0.188,55.326,"Curva 1: Strettissima, frenare.",6.66
123.388,0.046,-60.854,-13.662,0.007,-13.113,0.545,1.0,0.0,-1.202,-0.064,18.899,9.619,0.359,7.265,229.812,359.773,0.168,55.251,"Curva 1: Strettissima, frenare.",6.68
123.111,0.046,-61.118,-13.905,0.006,-13.05,0.555,1.0,0.0,-1.149,-0.065,19.035,10.172,-0.13,7.328,230.269,359.767,0.304,55.174,"Curva 1: Strettissima, frenare.",6.7
122.831,0.046,-61.381,-14.136,0.005,-13.003,0.555,1.0,0.0,-1.102,-0.071,19.175,9.166,-0.136,7.434,230.681,359.76,0.235,55.095,"Curva 1: Strettissima, frenare.",6.72
122.547,0.046,-61.643,-14.357,0.004,-12.969,0.555,1.0,0.0,-1.059,-0.078,19.319,8.242,-0.104,7.557,231.044,359.752,0.107,55.015,"Curva 1: Strettissima, frenare.",6.74
122.257,0.047,-61.904,-14.589,0.014,-12.924,0.593,1.0,0.0,-0.985,-0.061,19.465,9.024,0.459,7.617,231.36,359.773,0.123,54.932,"Curva 1: Strettissima, frenare.",6.76
121.961,0.046,-62.162,-14.824,-0.019,-12.89,0.593,1.0,0.0,-0.908,-0.095,19.624,8.595,-1.73,8.194,231.64,359.763,0.348,54.846,"Curva 1: Strettissima, frenare.",6.78
121.661,0.045,-62.422,-15.055,-0.022,-12.864,0.593,1.0,0.0,-0.831,-0.107,19.784,8.171,-0.231,8.236,231.892,359.746,0.204,54.761,"Curva 1: Strettissima, frenare.",6.8
121.358,0.045,-62.681,-15.263,-0.015,-12.839,0.593,1.0,0.0,-0.766,-0.107,19.93,7.349,0.328,7.471,232.131,359.735,0.032,54.674,"Curva 1: Strettissima, frenare.",6.82
121.049,0.045,-62.938,-15.495,-0.015,-12.814,0.71,1.0,0.0,-0.686,-0.107,20.095,8.07,-0.063,8.416,232.364,359.732,0.218,54.585,"Curva 1: Strettissima, frenare.",6.84
120.735,0.045,-63.195,-15.739,-0.012,-12.777,0.777,1.0,0.0,-0.589,-0.103,20.264,8.918,0.062,8.573,232.595,359.732,0.34,54.494,"Curva 1: Strettissima, frenare.",6.86
120.416,0.045,-63.452,-16.001,0.001,-12.725,0.777,1.0,0.0,-0.483,-0.094,20.438,9.96,0.585,8.863,232.86,359.726,0.225,54.403,"Curva 1: Strettissima, frenare.",6.88
120.093,0.045,-63.708,-16.267,0.01,-12.668,0.574,1.0,0.0,-0.395,-0.09,20.614,10.251,0.343,8.94,233.187,359.718,0.183,54.31,"Curva 1: Strettissima, frenare.",6.9
119.764,0.045,-63.962,-16.536,0.006,-12.599,0.574,1.0,0.0,-0.319,-0.095,20.786,10.777,-0.27,8.78,233.575,359.714,0.307,54.215,"Curva 1: Strettissima, frenare.",6.92
119.43,0.045,-64.215,-16.8,0.002,-12.532,0.574,1.0,0.0,-0.267,-0.102,20.957,10.459,-0.328,8.706,234.007,359.713,0.289,54.119,"Curva 1: Strettissima, frenare.",6.94
119.092,0.045,-64.469,-17.055,0.0,-12.469,0.574,1.0,0.0,-0.238,-0.105,21.125,9.979,-0.15,8.545,234.474,359.712,0.178,54.022,"Curva 1: Strettissima, frenare.",6.96
118.748,0.045,-64.72,-17.311,-0.008,-12.393,0.574,1.0,0.0,-0.214,-0.113,21.289,10.445,-0.493,8.319,234.976,359.716,0.239,53.923,"Curva 1: Strettissima, frenare.",6.98
118.399,0.044,-64.969,-17.564,-0.015,-12.311,0.574,1.0,0.0,-0.196,-0.118,21.448,10.549,-0.444,8.098,235.495,359.722,0.309,8.135,,7.0
118.045,0.044,-65.218,-17.81,-0.013,-12.23,0.477,1.0,0.0,-0.188,-0.116,21.604,10.237,0.003,7.941,236.021,359.725,0.227,8.181,,7.02
117.687,0.044,-65.465,-18.053,-0.01,-12.147,0.477,1.0,0.0,-0.184,-0.114,21.758,10.148,0.088,7.849,236.548,359.725,0.191,8.245,,7.04
117.324,0.044,-65.71,-18.287,-0.01,-12.069,0.477,1.0,0.0,-0.182,-0.114,21.91,9.618,-0.074,7.689,237.049,359.726,0.234,8.327,,7.06
116.955,0.044,-65.953,-18.521,-0.008,-11.992,0.477,1.0,0.0,-0.171,-0.114,22.064,9.525,0.0,7.798,237.519,359.725,0.244,8.429,,7.08
116.582,0.043,-66.195,-18.753,-0.005,-11.915,0.322,1.0,0.0,-0.153,-0.112,22.217,9.46,0.105,7.786,237.963,359.721,0.208,8.55,,7.1
116.205,0.043,-66.434,-18.981,-0.003,-11.837,0.322,1.0,0.0,-0.129,-0.113,22.368,9.274,0.001,7.646,238.381,359.719,0.201,8.689,,7.12
115.823,0.043,-66.673,-19.199,-0.004,-11.769,0.322,1.0,0.0,-0.107,-0.115,22.519,8.553,-0.109,7.599,238.762,359.718,0.193,8.846,,7.14
115.436,0.043,-66.909,-19.414,-0.006,-11.706,0.264,1.0,0.0,-0.08,-0.117,22.67,8.211,-0.138,7.582,239.112,359.718,0.185,9.021,,7.16
115.045,0.043,-67.145,-19.616,-0.007,-11.657,0.216,1.0,0.0,-0.06,-0.119,22.818,7.295,-0.133,7.461,239.43,359.72,0.147,9.214,,7.18
114.65,0.043,-67.38,-19.803,-0.009,-11.628,0.216,1.0,0.0,-0.049,-0.121,22.964,5.933,-0.138,7.309,239.701,359.722,0.096,9.423,,7.2
114.252,0.043,-67.614,-19.985,-0.011,-11.6,0.206,1.0,0.0,-0.028,-0.122,23.107,5.79,-0.152,7.2,239.938,359.725,0.131,9.649,,7.22
113.849,0.042,-67.847,-20.158,-0.011,-11.584,0.206,1.0,0.0,-0.012,-0.122,23.249,4.967,-0.046,7.107,240.144,359.727,0.119,9.892,,7.24
113.444,0.042,-68.08,-20.315,-0.009,-11.59,0.206,1.0,0.0,-0.009,-0.12,23.388,3.623,0.075,6.965,240.314,359.727,0.031,10.15,,7.26
113.035,0.042,-68.313,-20.469,-0.008,-11.592,0.206,1.0,0.0,0.005,-0.119,23.523,3.724,0.028,6.728,240.464,359.728,0.07,10.423,,7.28
112.623,0.042,-68.546,-20.619,-0.006,-11.594,0.206,1.0,0.0,0.02,-0.118,23.655,3.617,0.031,6.619,240.602,359.729,0.121,10.71,,7.3
112.209,0.042,-68.779,-20.761,-0.004,-11.606,0.206,1.0,0.0,0.024,-0.117,23.785,2.939,0.081,6.477,240.737,359.729,0.047,11.011,,7.32
111.792,0.042,-69.013,-20.899,-0.003,-11.616,0.206,1.0,0.0,0.025,-0.116,23.91,2.924,0.015,6.277,240.874,359.73,0.029,11.324,,7.34
111.371,0.042,-69.246,-21.038,-0.004,-11.618,0.158,1.0,0.0,0.033,-0.117,24.032,3.243,-0.064,6.102,241.01,359.731,0.103,11.649,,7.36
110.948,0.042,-69.48,-21.169,-0.005,-11.627,0.158,1.0,0.0,0.032,-0.118,24.152,2.798,-0.068,5.989,241.145,359.732,0.078,11.986,,7.38
110.523,0.042,-69.714,-21.296,-0.005,-11.64,0.158,1.0,0.0,0.026,-0.118,24.269,2.45,-0.027,5.848,241.278,359.733,0.013,12.334,,7.4
110.095,0.042,-69.947,-21.424,-0.001,-11.644,0.138,1.0,0.0,0.029,-0.117,24.383,2.93,0.139,5.721,241.407,359.728,0.048,12.692,,7.42
109.665,0.042,-70.181,-21.55,0.002,-11.65,0.138,1.0,0.0,0.033,-0.118,24.497,2.736,0.128,5.666,241.528,359.719,0.059,13.059,,7.44
109.232,0.041,-70.416,-21.667,0.001,-11.669,0.138,1.0,0.0,0.026,-0.122,24.609,1.952,-0.062,5.622,241.636,359.713,359.993,13.435,,7.46
108.796,0.041,-70.65,-21.786,-0.002,-11.684,0.129,1.0,0.0,0.026,-0.127,24.721,2.135,-0.205,5.605,241.734,359.71,0.014,13.819,,7.48
108.359,0.041,-70.885,-21.905,-0.006,-11.699,0.129,1.0,0.0,0.031,-0.131,24.833,2.149,-0.242,5.598,241.823,359.712,0.059,14.212,,7.5
107.919,0.041,-71.12,-22.018,-0.007,-11.724,0.129,1.0,0.0,0.027,-0.13,24.945,1.595,-0.064,5.566,241.905,359.717,-0.002,14.612,,7.52
107.477,0.041,-71.356,-22.132,-0.003,-11.746,0.0,1.0,0.0,0.025,-0.121,25.056,1.651,0.206,5.548,241.985,359.728,359.959,15.02,,7.54
107.032,0.041,-71.591,-22.249,-0.002,-11.763,0.0,1.0,0.0,0.031,-0.118,25.167,2.005,-0.006,5.579,242.064,359.736,0.036,15.434,,7.56
106.585,0.041,-71.827,-22.362,-0.004,-11.786,0.0,1.0,0.0,0.03,-0.12,25.278,1.62,-0.099,5.531,242.14,359.737,0.034,15.855,,7.58
106.136,0.041,-72.065,-22.47,-0.006,-11.813,0.0,1.0,0.0,0.021,-0.124,25.386,1.323,-0.122,5.386,242.22,359.734,359.968,16.283,,7.6
105.685,0.041,-72.302,-22.574,-0.011,-11.843,0.0,1.0,0.0,0.013,-0.13,25.492,1.099,-0.302,5.307,242.287,359.733,-0.003,16.716,,7.62
105.231,0.041,-72.54,-22.67,-0.013,-11.889,0.0,1.0,0.0,0.003,-0.133,25.598,0.177,-0.137,5.298,242.317,359.732,0.002,17.156,,7.64
104.776,0.04,-72.779,-22.764,-0.012,-11.938,0.0,1.0,0.0,0.001,-0.133,25.704,0.0,0.04,5.308,242.324,359.731,359.973,17.601,,7.66
104.319,0.04,-73.019,-22.859,-0.009,-11.986,0.0,1.0,0.0,0.004,-0.132,25.81,0.121,0.131,5.306,242.321,359.728,359.987,18.051,,7.68
103.86,0.04,-73.259,-22.953,-0.006,-12.033,0.0,1.0,0.0,0.008,-0.13,25.916,0.083,0.14,5.307,242.316,359.725,0.005,18.507,,7.7
103.399,0.04,-73.501,-23.046,-0.005,-12.086,0.0,1.0,0.0,0.005,-0.133,26.022,-0.182,0.0,5.303,242.315,359.719,359.991,18.968,,7.72
102.936,0.04,-73.744,-23.137,-0.007,-12.138,0.225,1.0,0.0,0.001,-0.139,26.127,-0.163,-0.112,5.237,242.317,359.711,-0.004,19.434,,7.74
102.472,0.039,-73.987,-23.228,-0.006,-12.186,0.225,1.0,0.0,0.0,-0.14,26.23,-0.004,0.021,5.164,242.319,359.707,0.007,19.904,,7.76
102.005,0.039,-74.232,-23.319,-0.005,-12.234,0.225,1.0,0.0,-0.002,-0.14,26.333,-0.03,0.024,5.158,242.321,359.707,-0.001,20.379,,7.78
101.537,0.039,-74.478,-23.411,-0.004,-12.282,0.225,1.0,0.0,-0.002,-0.139,26.437,-0.003,0.011,5.161,242.321,359.708,-0.006,20.859,,7.8
101.067,0.039,-74.724,-23.502,-0.004,-12.328,0.225,1.0,0.0,0.0,-0.138,26.539,0.076,-0.005,5.117,242.321,359.71,0.006,21.342,,7.82
100.595,0.039,-74.972,-23.592,-0.004,-12.375,0.225,1.0,0.0,0.0,-0.138,26.64,0.016,-0.028,5.061,242.321,359.711,0.003,21.83,,7.84
100.122,0.039,-75.22,-23.68,-0.004,-12.422,0.303,1.0,0.0,0.0,-0.139,26.74,-0.035,-0.047,4.996,242.32,359.71,359.993,22.321,,7.86
99.646,0.039,-75.469,-23.779,-0.004,-12.446,0.303,1.0,0.0,0.013,-0.141,26.839,1.245,-0.041,4.935,242.346,359.709,0.061,22.817,,7.88
99.168,0.039,-75.718,-23.893,-0.005,-12.437,0.313,1.0,0.0,0.033,-0.143,26.936,3.041,-0.057,4.861,242.433,359.707,0.141,23.315,,7.9
98.689,0.039,-75.968,-24.007,-0.004,-12.428,0.313,1.0,0.0,0.028,-0.144,27.032,3.025,-0.002,4.826,242.572,359.705,0.069,23.817,,7.92
98.207,0.039,-76.217,-24.129,-0.004,-12.399,0.187,1.0,0.0,0.025,-0.144,27.127,4.059,0.008,4.754,242.749,359.704,0.078,24.322,,7.94
97.722,0.039,-76.465,-24.257,-0.004,-12.355,0.187,1.0,0.0,0.034,-0.145,27.222,4.9,-0.054,4.709,242.937,359.703,0.165,24.829,,7.96
97.235,0.039,-76.713,-24.383,-0.004,-12.314,0.187,1.0,0.0,0.038,-0.146,27.316,4.671,-0.019,4.718,243.126,359.702,0.125,25.339,,7.98
96.746,0.038,-76.961,-24.508,-0.003,-12.275,0.187,1.0,0.0,0.039,-0.146,27.409,4.539,0.011,4.666,243.315,359.7,0.065,25.852,,8.0
96.254,0.038,-77.206,-24.636,-0.004,-12.226,0.187,1.0,0.0,0.051,-0.148,27.502,5.053,-0.09,4.649,243.501,359.7,0.134,26.368,,8.02
95.759,0.038,-77.451,-24.762,-0.005,-12.181,0.187,1.0,0.0,0.059,-0.151,27.596,4.817,-0.097,4.67,243.684,359.698,0.148,26.885,,8.04
95.263,0.038,-77.696,-24.882,-0.005,-12.146,0.206,1.0,0.0,0.054,-0.151,27.688,4.219,-0.004,4.623,243.87,359.697,0.066,27.406,,8.06
94.763,0.038,-77.94,-24.999,-0.005,-12.116,0.206,1.0,0.0,0.048,-0.153,27.78,3.87,-0.055,4.601,244.043,359.696,0.059,27.929,,8.08
94.261,0.038,-78.183,-25.11,-0.006,-12.102,0.206,1.0,0.0,0.044,-0.155,27.873,3.07,-0.066,4.651,244.178,359.695,0.081,28.454,,8.1
93.758,0.038,-78.425,-25.218,-0.006,-12.092,0.061,1.0,0.0,0.045,-0.156,27.966,2.766,-0.031,4.661,244.289,359.693,0.066,28.982,,8.12
93.252,0.038,-78.668,-25.324,-0.005,-12.084,0.061,1.0,0.0,0.046,-0.156,28.059,2.641,0.002,4.617,244.395,359.692,0.05,29.512,,8.14
